SITE,PLATFORM,Network,Array,GDAC,WMO_ID,ORIG_DESC_YYYYMM,UPDATE_PI_EMAIL,UPDATE_DATE_YYYYMM,SITE_DESCRIPTION,LAT,LON,TYPE,OCEAN,STATUS,DATA_TYPE,PHYS,MET,GEOPHYS,BGCHEM,CO2,FLUX,AirSeaFlux_Ref,COUNTRY,AGENCY,JCOMMOPS_PROGRAM,INFOURL,DATAURL,MetadataURL,PI,EMAILS,MISC,Observatory_or_Project,DAC,DataManager,DataManagementAgency
ASOF-W-SHELF,ADCPFWF,ASOF,, -, - ,200906,stephen.dye@cefas.co.uk,200906,SE-Greenland (ASOF-W) ADCP on Shelf,63.041,-40.856,subsurface,Atlantic,OPERATING,Delayed Mode Data; Accessible,1,,,,,,,EUROPE,EU-ASOF,,http://www.eu-thor.eu/Home.532.0.html,,,Dye;Dickson;Meincke;quadfasel,meinecke@ifm.uni-hamburg.de;quadfasel@ifm.uni-hamburg.de;stephen.dye@cefas.co.uk,,ASOF,-,-,-
ASOF-W-SLOPE,SE-GREENLAND-T1,ASOF,, -, - ,200512,stephen.dye@cefas.co.uk,200906,SE-Greenland (ASOF-W):1,63.550,-36.650,transport,Atlantic,OPERATING,Delayed Mode Data; Accessible,1,,,,,,,EUROPE,EU-ASOF,,http://www.eu-thor.eu/Home.532.0.html, - ,,Dye;Dickson;Meincke;quadfasel,meinecke@ifm.uni-hamburg.de;quadfasel@ifm.uni-hamburg.de;stephen.dye@cefas.co.uk,,ASOF,-,-,-
ASOF-W-SLOPE,SE-GREENLAND-T2,ASOF,, -, - ,200512,stephen.dye@cefas.co.uk,200906,SE-Greenland (ASOF-W):2,63.283,-35.867,transport,Atlantic,OPERATING,Delayed Mode Data; Accessible,1,,,,,,,EUROPE,EU-ASOF,,http://www.eu-thor.eu/Home.532.0.html, - ,,Dye;Dickson;Meincke;quadfasel,meinecke@ifm.uni-hamburg.de;quadfasel@ifm.uni-hamburg.de;stephen.dye@cefas.co.uk,,ASOF,-,-,-
BARENTSEA-1,BARENTSEA-T1,ASOF,, -, - ,200603,randi.ingvaldsen@imr.no,200906,Barents-Sea   (ASOF-N):1,72.000,20.000,transport,Atlantic,OPERATING,Delayed Mode Data; Not Accessible,1,,,,,,,EUROPE,ASOF-N,,http://www.awi.de/en/research/research_divisions/climate_science/observational_oceanography/projects/asof_n/, - , - ,Ingvaldsen (IMR Norway);  ,randi.ingvaldsen@imr.no,"CLIVAR DATA POLICY,  5 moorings plus 2 bottom ADCPs (current meters and T and S sensors) ",ASOF,-,-,-
BARENTSEA-2,BARENTSEA-T2,ASOF,, -, - ,200603,randi.ingvaldsen@imr.no,200906,Barents-Sea   (ASOF-N):2,76.000,17.000,transport,Atlantic,OPERATING,Delayed Mode Data; Not Accessible,1,,,,,,,EUROPE,ASOF-N,,http://www.awi.de/en/research/research_divisions/climate_science/observational_oceanography/projects/asof_n/, - , - ,Ingvaldsen (IMR Norway);  ,randi.ingvaldsen@imr.no,2-ADCP-array at the sill will be maintained  ~2011,ASOF,-,-,-
FAROEBANK-1,FAROEBANK-T1,ASOF,, -, - ,200503,BogiHan@frs.fo,200901,Iceland-Faroe Inflow (ASOF-E):1,63.300,-6.100,transport,Atlantic,OPERATING,Delayed Mode Data; Not Accessible,1,,,,,,,EUROPE,ASOF-E,,http://www.frs.fo ,www.envofar.fo (planned),,B Hansen,BogiHan@frs.fo;ngfso@uib.no,,ASOF,-,-,-
FAROEBANK-2,FAROEBANK-T2,ASOF,, -, - ,200503,BogiHan@frs.fo,200901,Iceland-Faroe Inflow (ASOF-E):2,62.700,-6.100,transport,Atlantic,OPERATING,Delayed Mode Data; Not Accessible,1,,,,,,,EUROPE,ASOF-E,,http://www.frs.fo ,www.envofar.fo (planned),,B Hansen,BogiHan@frs.fo;ngfso@uib.no,,ASOF,-,-,-
FAROEBCO-1,FAROEBCO-T1,ASOF,, -, - ,200901,BogiHan@frs.fo,200901,Faroe Bank Channel Overflow:1,63.970,-13.520,transport,Atlantic,OPERATING,Delayed Mode Data; Not Accessible,1,,,,,,,GERMANY,GERMANY/FAROES,,http://www.frs.fo ,www.envofar.fo (planned),,Osterhus;Quadfasel (IfM-HH);B Hansen,quadfasel@ifm.uni-hamburg.de;BogiHan@frs.fo;svein.osterhus@gfi.uib.no;ngfso@uib.no,,ASOF,-,-,-
FAROEBCO-2,FAROEBCO-T2,ASOF,, -, - ,200901,BogiHan@frs.fo,200901,Faroe Bank Channel Overflow:2,63.971,-13.521,transport,Atlantic,OPERATING,Delayed Mode Data; Not Accessible,1,,,,,,,GERMANY,GERMANY/FAROES,,http://www.frs.fo ,www.envofar.fo (planned),,Osterhus;Quadfasel (IfM-HH);B Hansen,quadfasel@ifm.uni-hamburg.de;BogiHan@frs.fo;svein.osterhus@gfi.uib.no;ngfso@uib.no,,ASOF,-,-,-
 - , - ,,, -, - ,200503,a.j.watson@uea.ac.uk, -,SE Greenland,63.000,-36.000,subsurface,Atlantic,DISCONTINUED,Delayed Mode Data; Not Accessible,1,,,1,,,,UK,UK,,, - ,,Watson,a.j.watson@uea.ac.uk,BIO,ASOF,-,-,-
BATS,BATS-1,,BERMUDA,(NDBC),NY,200608,Michael.Lomas@bios.edu,200901,BATS,31.667,-64.167,observatory,Atlantic,OPERATING,Delayed Mode Data; Accessible,1,1,1,1,1,1,1,BERMUDA,BERMUDA-BIOS,,http://bats.bios.edu,http://bats.bios.edu,,Knap;Lomas,tony.knap@bios.edu;Michael.Lomas@bios.edu;Jerome.Aucan@bios.edu;Rod.Johnson@bios.edu,"biological, ecological",BERMUDA,-,-,-
BATS,BHYDROS,,BERMUDA,(NDBC),NY,200608,jerome.aucan@bios.edu,200901,BATS Hydostation S,32.167,-64.500,observatory,Atlantic,OPERATING,Delayed Mode Data; Accessible,1,1,1,1,1,1,1,BERMUDA,BERMUDA-BIOS,,http://bats.bios.edu,http://bats.bios.edu,,Knap;Lomas;Aucan,tony.knap@bios.edu;Michael.Lomas@bios.edu;Jerome.Aucan@bios.edu;Rod.Johnson@bios.edu,"biological, ecological",BERMUDA,CCHDO (PLANNED),sdiggs@ucsd.edu ,BIOS
BTM,BTM-1,,BERMUDA,(NDBC),-,200608,tommy.dickey@opl.ucsb.edu,200608,BTM,31.720,-64.170,surface,Atlantic,DISCONTINUED,Delayed Mode Data; Not Accessible,1,1,,1,1,1,,USA,USA-UCSB,,http://www.opl.ucsb.edu,http://www.opl.ucsb.edu/data.html,,Dickey;Sabine,tommy.dickey@opl.ucsb.edu,"Discontinued, ecological",BERMUDA,NDBC (PLANNED),bill.burnett@noaa.gov,UCSB
OFP,OFP-1,,BERMUDA, -,NY,200608,mconte@mbl.edu,200901,Ocean Flux Program,31.830,-64.170,subsurface,Atlantic,OPERATING,Delayed Mode Data; Accessible,,,,1,,,,USA,USA-MBL,,http://www.bios.edu/research/OFP.html, - ,,Conte;Weber,mconte@mbl.edu;jweber@mbl.edu,sediment trap,BERMUDA,-,-,-
CAPEBLANC,CAPEBLANC,,, -, -,200503,gbudeus@awi-bremerhaven.de, - ,Cape Blanc,21.280,-20.800,subsurface,Atlantic,OPERATING,Delayed Mode Data; Not Accessible,,,,1,,,,GERMANY,GERMANY-AWI,,http://www.rcom-bremen.de, - ,,Meinecke (Uni Bremen),gmeinecke@marum.de,,CAPEBLANC,-,-,-
CLIMODE,GSORS,,GULF STREAM,(NDBC),NY,200502,rweller@whoi.edu,200906,Gulf Stream Ocean Reference Station,38.500,-65.000,surface,Atlantic,PLANNED,Real Time & Delayed Mode Data; Accessible soon,1,1,,,,1,,USA,USA-WHOI,,http://www.climode.org,http://uop.whoi.edu/projects/CLIMODE/climode/data.htm,,Weller (WHOI),rweller@whoi.edu,Was CLIMODE/Gulf Stream extension ,CLIMODE,-,-,-
 - , - ,,DAVISSTRAIT, -, - ,200503,craig@apl.washington.edu, - ,Davis Strait:1,66.500,-62.000,transport,Atlantic,DISCONTINUED,Delayed Mode Data; Not Accessible,1,,,,,,,USA,USA-UNIVWASHINGTON,,http://iop.apl.washington.edu, - ,,Lee,craig@apl.washington.edu,,DAVISTRAIT,-,-,-
 - , - ,,DAVISSTRAIT, -, - ,200503,craig@apl.washington.edu, - ,Davis Strait:2,67.500,-54.000,transport,Atlantic,DISCONTINUED,Delayed Mode Data; Not Accessible,1,,,,,,,USA,USA-UNIVWASHINGTON,,http://iop.apl.washington.edu, - ,,Lee,craig@apl.washington.edu,,DAVISTRAIT,-,-,-
DENMARKSTOF-A,DENMARKSTOFT-A,,DENMARKSTRAIT, -, - ,200604,quadfasel@ifm.uni-hamburg.de,200604,Denmark Strait overflow:2,66.083,-27.090,transport,Atlantic,OPERATING,Delayed Mode Data; Not Accessible,1,,,,,,,USA,GERMANY/ICELAND,,http://www.ifm-geomar.de/index.php?id=1206&L=1, - , - ,Macrander (AWI);quadfasel (IfM-HH);Valdimarsson (Iceland),amacrander@awi-bremerhaven.de;quadfasel@ifm.uni-hamburg.de;detlef.quadfasel@zmaw.de;hv@hafro.is,Annual Data ,DENMARKSTRAIT,-,-,-
DENMARKSTOF-B,DENMARKSTOFT-B,,DENMARKSTRAIT, -,NY,200604,quadfasel@ifm.uni-hamburg.de,200604,Denmark Strait overflow:1,66.120,-27.270,transport,Atlantic,OPERATING,Delayed Mode Data; Not Accessible,1,,,,,,,USA,GERMANY/ICELAND,,http://www.ifm-geomar.de/index.php?id=1206&L=1, - , - ,Macrander (AWI);quadfasel (IfM-HH);Valdimarsson (Iceland),amacrander@awi-bremerhaven.de;quadfasel@ifm.uni-hamburg.de;detlef.quadfasel@zmaw.de;hv@hafro.is,Annual Data ,DENMARKSTRAIT,-,-,-
CIS,CIS-1,"EUROSITES, ANIMATE, MERSEA",IRMINGER SEA,IFREMER,44478,200602,jkarstensen@ifm-geomar.de,200812,"CIS, Central Irminger Sea",59.667,-39.667,observatory,Atlantic,OPERATING,Real Time & Delayed Mode Data; Accessible,1,,,1,1,,,USA,GERMANY-IFMGEOMAR,,http://www.eurosites.info/cis.php,http://www.eurosites.info/cis/data.php,ftp://ftp.ifremer.fr/ifremer/oceansites/EuroSITES/CIS/metadata/,Karstensen;Mueller,jkarstensen@ifm-geomar.de;tmueller@ifm-geomar.de,"Argos, future Iridium",EUROSITES,EUROSITES,mred@noc.soton.ac.uk,IFM-GEOMAR/NOCS
DYFAMED,DYFAMED,EUROSITES,,IFREMER, - ,200608,coppola@obs-vlfr.fr,200901,DYFAMED,43.420,7.867,observatory,Atlantic,OPERATING,Delayed Mode Data; Accessible,1,1,,1,,,,USA,EU/France-IRD,,http://www.obs-vlfr.fr/sodyf,http://www.obs-vlfr.fr/dyfBase/,ftp://ftp.ifremer.fr/ifremer/oceansites/EuroSITES/DYFAMED/metadata/,Marty (LOV); Laurent Coppola (VLFR),coppola@obs-vlfr.fr,DYFAMED; project in progress MOOSE (Mediterranean Ocean Observing System on Environment),EUROSITES,EUROSITES,coppola@obs-vlfr.fr,VILLEFRANCHE
E1M3A,E1M3A,EUROSITES,,IFREMER,6101007,200608,knittis@hcmr.gr,200812,E1-M3A Cretan Sea (POSEIDON),35.660,24.930,observatory,Atlantic,OPERATING,Real Time & Delayed Mode Data; Accessible,1,1,,1,,1,1,USA,EU/GREECE-HCMR,,http://www.poseidon.hcmr.gr,http://www.poseidon.hcmr.gr/onlinedata.php,ftp://ftp.ifremer.fr/ifremer/oceansites/EuroSITES/E1M3A/metadata/,Kostas Nittis; George Petihakis ,knittis@hcmr.gr;pet@her.hcmr.gr,Previously 3 separate moorings,EUROSITES,EUROSITES,mred@noc.soton.ac.uk,M3A
E2M3A,E2M3A,EUROSITES,,(IFREMER),NY,200608,vcardin@ogs.trieste.it,200901,E2-M3A Adriatic Sea,41.833,17.757,observatory,Atlantic,OPERATING,Real Time & Delayed Mode Data; Accessible,1,1,,1,1,1,1,USA,EU/ITALY-OGSTrieste,,http://poseidon.ogs.trieste.it/eurosites,http://doga.ogs.trieste.it/boma_mfstep,ftp://ftp.ifremer.fr/ifremer/oceansites/EuroSITES/E2M3A/metadata/,Cardin,vcardin@ogs.trieste.it;fbrunetti@ogs.trieste.it,"2 moorings, physical and chemical data, current (ADCP and Aanderaa) data, meteo data measured at surface buoy  ",EUROSITES,EUROSITES,mred@noc.soton.ac.uk,M3A
ESTOC,ESTOC-1,"EUROSITES, ANIMATE, MERSEA",,IFREMER,13471,200503,andres@iccm.rcanaria.es,200907,"ESTOC, Canary Islands:0",29.000,-15.500,observatory,Atlantic,OPERATING,Real Time & Delayed Mode Data; Accessible,1,1,,1,1,,,USA,EU-RCANARIA,,http://www.eurosites.info/estoc.php,http://www.eurosites.info/estoc/data.php,ftp://ftp.ifremer.fr/ifremer/oceansites/EuroSITES/ESTOC/metadata/,Meinecke (Uni Bremen);Andres Cianca(Canaries);Marta De Herrera Nistal (Canaries),meinecke@ifm.uni-hamburg.de;andres@iccm.rcanaria.es;martanistal@iccm.rcanaria.es,,EUROSITES,EUROSITES,mred@noc.soton.ac.uk,NOCS
PAP,PAP-1,"EUROSITES, ANIMATE, MERSEA",,IFREMER,62442,200503,rsl@noc.soton.ac.uk,200901,"PAP, Porcupine Abyssal Plain:1",49.000,-16.500,observatory,Atlantic,OPERATING,Real Time & Delayed Mode Data; Accessible,1,1,,1,1,1,,UK,EU-NOCS,,http://www.eurosites.info,http://www.eurosites.info/pap/data.php,ftp://ftp.ifremer.fr/ifremer/oceansites/EuroSITES/PAP/metadata/,Lampitt (SOC),rsl@noc.soton.ac.uk;suh@noc.soton.ac.uk;kel1@noc.soton.ac.uk;mred@noc.soton.ac.uk,,EUROSITES,EUROSITES,mred@noc.soton.ac.uk,NOCS
STATION-M,STATION-M,EUROSITES,,IFREMER, - ,200504,ngfso@uib.no,200901,"OWS  M, Norwegian Sea",66.000,2.000,observatory,Atlantic,OPERATING,Delayed Mode Data; Not Accessible,1,1,,1,,,,NORWAY,NORWAY,,http://www.eurosites.info,http://www.eurosites.info/stationm/data.php,ftp://ftp.ifremer.fr/ifremer/oceansites/EuroSITES/STATION-M/metadata/,Osterhus (Norway),svein.osterhus@gfi.uib.no;ngfso@uib.no,,EUROSITES,NORWAY (PLANNED),svein.osterhus@gfi.uib.no,Osterhus
TENATSO,TENATSO-ATMOS,EUROSITES,,(IFREMER),,200502,dwallace@ifm-geomar.de,200906,TENATSO Cape Verde Atmosphere,16.800,-24.900,observatory,Atlantic,OPERATING,Delayed Mode Data; Not Accessible,,1,,1,,,,GERMANY,GERMANY/CAPEVERDE,,http://www.bgc-jena.mpg.de/bgc-systems/projects/cape_verde/index.shtml ,http://www.tenatso.com ,,Wallace (IFMGEOMAR);Martin Heimann (Jena),dwallace@ifm-geomar.de;jramos@ifm-geomar.de;carlos.santos@indp.cv;anibal.medina@indp.cv;,"Tropical Eastern North Atlantic Time-Series Observatory  (TENATSO). biological, atm. Chemistry",EUROSITES,EUROSITES (PLANNED),mred@noc.soton.ac.uk,-
TENATSO,TENATSO-OCEAN,EUROSITES,,(IFREMER),,200502,dwallace@ifm-geomar.de,200906,TENATSO Cape Verde Ocean Mooring,17.583,-24.250,observatory,Atlantic,OPERATING,Delayed Mode Data; Not Accessible,1,,,1,1,,,GERMANY,GERMANY/CAPEVERDE,,http://www.tenatso.com,http://www.eurosites.info/tenatso/data.php,ftp://data.ndbc.noaa.gov/data/oceansites/TENATSO,Wallace (IFMGEOMAR);Joana Ramos ,dwallace@ifm-geomar.de;jramos@ifm-geomar.de;carlos.santos@indp.cv;anibal.medina@indp.cv;,"Tropical Eastern North Atlantic Time-Series Observatory  (TENATSO). biological, atm. Chemistry",EUROSITES,EUROSITES (PLANNED),mred@noc.soton.ac.uk,-
W1M3A,W1M3A,EUROSITES,,IFREMER,61010,200503,boz@ge.issia.cnr.it,200901,W1-M3A Ligurian Sea ODAS Italia 1,43.813,9.125,observatory,Atlantic,OPERATING,Real Time & Delayed Mode Data; Accessible,1,1,,,,1,1,EUROPE,EU/Italy-CNR,,http://www.odas.ge.issia.cnr.it,http://www.odas.ge.issia.cnr.it/Product/LastData.html,ftp://ftp.ifremer.fr/ifremer/oceansites/EuroSITES/W1M3A/metadata/,Bozzano (CNR/ISSIA); Elisabetta Schiano(CNR/ISM);Stefania Sparnocchia(CNR/ISM),boz@ge.issia.cnr.it;,,EUROSITES,EUROSITES,mred@noc.soton.ac.uk,M3A
HAUSGARTEN,HAUSGARTEN-1,,FRAMSTRAIT, -,NY,200906,michael.klages@awi.de, - ,Hausgarten,78.500,-4.000,subsurface,Atlantic,OPERATING,Delayed Mode Data; Not Accessible,1,,1,1,,,,GERMANY,NORWAY/GERMANY-AWI,,http://www.awi.de/en/go/deepsea,http://www.pangaea.de, - ,Michael Klages;,Michael.Klages@awi-bremerhaven.de,"ice, tomography, benthos. Funding until 2012 at least",FRAMSTRAIT,-,-,-
FRAMSTRAIT,FRAMSTRAIT-T1,,FRAMSTRAIT, -,NY,200609,efahrbach@awi-bremerhaven.de,200906,Fram Strait:1,78.500,9.000,transport,Atlantic,OPERATING,Delayed Mode Data; Not Accessible,1,,,1,,,,NORWAY,NORWAY/GERMANY-AWI,,http://acobar.nersc.no/,http://arctic-roos.org/,http://www.pangaea.de/about/,Fahrbach (AWI);E Hansen (NPI);  Stein Sandven  (NERSC),efahrbach@awi-bremerhaven.de;edmond.hansen@npolar.no;stein.sandven@nersc.no;Gerd.Rohardt@awi.de;,"ice, tomography, benthos",FRAMSTRAIT,-,-,-
FRAMSTRAIT,FRAMSTRAIT-T2,,FRAMSTRAIT, -,NY,200609,efahrbach@awi-bremerhaven.de,200906,Fram Strait:2,78.500,-7.000,transport,Atlantic,OPERATING,Delayed Mode Data; Not Accessible,1,,,1,,,,NORWAY,NORWAY/GERMANY-AWI,,http://acobar.nersc.no/,http://arctic-roos.org/,http://www.pangaea.de/about/,Fahrbach (AWI);E Hansen (NPI);  Stein Sandven  (NERSC),efahrbach@awi-bremerhaven.de;edmond.hansen@npolar.no;stein.sandven@nersc.no;Gerd.Rohardt@awi.de;,"ice, tomography, benthos",FRAMSTRAIT,-,-,-
LOCO-IRMINGSEA,IRMINGSEA-1,LOCO,IRMINGER SEA,(IFREMER), - ,200503,aken@nioz.nl, - ,Irminger Sea,59.000,-40.000,subsurface,Atlantic,OPERATING,Delayed Mode Data; Accessible,1,,,1,,,,USA,LOCO,,http://www.nio.nl/fys,http://www.nioz.nl/dmg,,van Aken,aken@nioz.nl,,IRMINGER,-,-,-
OOI-IRMINGERSEA,OOI-IRMINGERSEA-1,OOI,IRMINGER SEA, -,NY, - ,usend@ucsd.edu, -,"Ocean Observatories Initiative, Irminger Sea, SE of Greenland",60.000,-39.000,observatory,Atlantic,PLANNED,Real Time & Delayed Mode Data; Accessible soon,1,1,1,1,1,1,1,USA,USA- NSF/WHOI/SIO/OSU,,http://www.whoi.edu/page.do?pid=22317, - ,,Weller; Send; Plueddemann,rweller@whoi.edu;aplueddemann@whoi.edu;usend@ucsd.edu,"Depth 2800m, Acoustically Linked Surface Mooring with Subsurface Profiler Mooring and Mesoscale Flanking Mooring Pair",OOI,-,-,-
STHIRMINGER,STHIRMINGER,,IRMINGER SEA, -, -,200503,nhogg@whoi.edu, - ,S Irminger Sea,59.590,-38.580,subsurface,Atlantic,OPERATING,Delayed Mode Data; Not Accessible,1,,,,,,,USA,USA-WHOI,,http://www.whoi.edu/science/AOPE/ael/ultramoor, - ,,Pickart (WHOI); Hogg (WHOI),rpickart@whoi.edu;nhogg@whoi.edu,,IRMINGER,-,-,-
K276,K276-1,,,(IFREMER),NY,200608,tmueller@ifm-geomar.de,200901,Keil 276 (Azores Front Madeira),33.000,-22.000,subsurface,Atlantic,OPERATING,Delayed Mode Data; Accessible,1,,,1,,,,GERMANY,GERMANY-IFMGEOMAR,,http://www.ifm-geomar.de/,http://www.ifm-geomar.de/,,Müller (IFMGEOMAR),tmueller@ifm-geomar.de,"Depth 5280mm, moored sensors; cross-frontal vmADCP and CTD/rosette casts during mooring services ",KIEL276,-,-,-
LABSEAEXP-3,LABSEAEXP-3,LABSEAEXP,LABRADOR SEA, -, - ,200503,jfischer@ifm-geomar.de,200906,Labrador Sea export,53.000,-51.000,subsurface,Atlantic,OPERATING,Delayed Mode Data; Not Accessible,1,,,,,,,GERMANY,GERMANY-IFMGEOMAR,,http://www.ifm-geomar.de/, - ,www.ifm-geomar.de ,Fischer (IFMGEOMAR),jfischer@ifm-geomar.de,"convection, water mass variablity - Current Meters, Seacats, microcats.",LABSEAEXP,-,-,-
LABSEAEXP-4,LABSEAEXP-4,LABSEAEXP,LABRADOR SEA, -, - ,200503,jfischer@ifm-geomar.de,200907,Labrador Sea export,56.627,-52.613,subsurface,Atlantic,OPERATING,Delayed Mode Data; Not Accessible,1,,,,,,,GERMANY,GERMANY-IFMGEOMAR,,http://www.ifm-geomar.de/, - ,www.ifm-geomar.de ,Fischer (IFMGEOMAR),jfischer@ifm-geomar.de,"convection, water mass variablity - Current Meters, Seacats, microcats.",LABSEAEXP,-,-,-
LABSEA-T-1,LABSEA-T1,LABSEAEXP,LABRADOR SEA, -, - ,200503,jfischer@ifm-geomar.de,200906,Labrador Sea export:1,56.530,-52.650,transport,Atlantic,OPERATING,Delayed Mode Data; Not Accessible,1,,,,,,,GERMANY,GERMANY-IFMGEOMAR,,http://www.ifm-geomar.de/, - ,www.ifm-geomar.de ,Fischer (IFMGEOMAR),jfischer@ifm-geomar.de,"convection, water mass variablity - Current Meters, Seacats, microcats.",LABSEAEXP,-,-,-
LABSEA-T-2,LABSEA-T2,LABSEAEXP,LABRADOR SEA, -, - ,200503,jfischer@ifm-geomar.de,200906,Labrador Sea export:2,55.450,-53.730,transport,Atlantic,OPERATING,Delayed Mode Data; Not Accessible,1,,,,,,,GERMANY,GERMANY-IFMGEOMAR,,http://www.ifm-geomar.de/, - ,www.ifm-geomar.de ,Fischer (IFMGEOMAR),jfischer@ifm-geomar.de,"convection, water mass variablity - Current Meters, Seacats, microcats.",LABSEAEXP,-,-,-
MOVE1,MOVE1,MOVE,TROPICAL ATLANTIC,NDBC,-, - ,usend@ucsd.edu,200903,MOVE1,15.450,-51.500,subsurface,Atlantic,OPERATING,Delayed Mode Data; Accessible,1,,,,,,,USA,SIO,,http://mooring.ucsd.edu/projects/move/move_intro.html,ftp://ftp.ifremer.fr/ifremer/oceansites/MOVE,ftp://ftp.ifremer.fr/ifremer/oceansites/MOVE/metadata,Send; Begler; Lankhorst,usend@ucsd.edu;mlankhorst@ucsd.edu;cbegler@ucsd.edu,Was previously called v404. Meridional Overturning Variability Experiment. Includes MOVE1P Platform pressure inverted echosounder (PIES),MOVE,NDBC,mlankhorst@ucsd.edu,SIO/IFM-GEOMAR
MOVE2,MOVE2,MOVE,TROPICAL ATLANTIC,(IFREMER), - , - ,usend@ucsd.edu,200903,MOVE2,15.933,-57.000,subsurface,Atlantic,DISCONTINUED,Delayed Mode Data; Accessible soon,1,,,,,,,USA,SIO,,http://mooring.ucsd.edu/projects/move/move_intro.html,ftp://ftp.ifremer.fr/ifremer/oceansites/MOVE,ftp://ftp.ifremer.fr/ifremer/oceansites/MOVE/metadata,Send; Begler; Lankhorst,usend@ucsd.edu;mlankhorst@ucsd.edu;cbegler@ucsd.edu,"Was previously called v405. Site discontinued, but existing data to be published in OceanSITES. Included MOVE2P Platformpressure inverted echosounder  (PIES)",MOVE,NDBC,mlankhorst@ucsd.edu,SIO/IFM-GEOMAR
MOVE3,MOVE3,MOVE,TROPICAL ATLANTIC,(IFREMER), - , - ,usend@ucsd.edu,200903,MOVE3,16.333,-60.500,subsurface,Atlantic,OPERATING,Delayed Mode Data; Accessible,1,,,,,,,USA,SIO,,http://mooring.ucsd.edu/projects/move/move_intro.html,ftp://ftp.ifremer.fr/ifremer/oceansites/MOVE,ftp://ftp.ifremer.fr/ifremer/oceansites/MOVE/metadata,Send; Begler; Lankhorst,usend@ucsd.edu;mlankhorst@ucsd.edu;cbegler@ucsd.edu,Was previously called v406. Meridional Overturning Variability Experiment. Includes MOVE3P Platform pressure inverted echosounder  (PIES),MOVE,NDBC,mlankhorst@ucsd.edu,SIO/IFM-GEOMAR
MOVE4,MOVE4,MOVE,TROPICAL ATLANTIC, -, - , - ,usend@ucsd.edu,200903,MOVE4,16.333,-60.617,subsurface,Atlantic,OPERATING,Delayed Mode Data; Accessible,1,,,,,,,USA,SIO,,http://mooring.ucsd.edu/projects/move/move_intro.html,ftp://ftp.ifremer.fr/ifremer/oceansites/MOVE,ftp://ftp.ifremer.fr/ifremer/oceansites/MOVE/metadata,Send; Begler; Lankhorst,usend@ucsd.edu;mlankhorst@ucsd.edu;cbegler@ucsd.edu,Was previously called v407. Meridional Overturning Variability Experiment. ,MOVE,NDBC,mlankhorst@ucsd.edu,SIO/IFM-GEOMAR
MOVE5,MOVE5,MOVE,TROPICAL ATLANTIC, -, - , - ,usend@ucsd.edu,200903,MOVE5,16.333,-60.733,subsurface,Atlantic,DISCONTINUED,Delayed Mode Data; Accessible soon,1,,,,,,,USA,SIO,,http://mooring.ucsd.edu/projects/move/move_intro.html,ftp://ftp.ifremer.fr/ifremer/oceansites/MOVE,ftp://ftp.ifremer.fr/ifremer/oceansites/MOVE/metadata,Send; Begler; Lankhorst,usend@ucsd.edu;mlankhorst@ucsd.edu;cbegler@ucsd.edu,,MOVE,NDBC,mlankhorst@ucsd.edu,SIO/IFM-GEOMAR
MOVE6,MOVE6,MOVE,TROPICAL ATLANTIC, -, - , - ,usend@ucsd.edu,200903,MOVE6,20.600,-56.683,subsurface,Atlantic,DISCONTINUED,Delayed Mode Data; Accessible soon,1,,,,,,,USA,SIO,,http://mooring.ucsd.edu/projects/move/move_intro.html,ftp://ftp.ifremer.fr/ifremer/oceansites/MOVE,ftp://ftp.ifremer.fr/ifremer/oceansites/MOVE/metadata,Send; Begler; Lankhorst,usend@ucsd.edu;mlankhorst@ucsd.edu;cbegler@ucsd.edu,,MOVE,-,-,-
MOVE7,MOVE7,MOVE,TROPICAL ATLANTIC, -, - , - ,usend@ucsd.edu,200903,MOVE7,12.250,-57.200,subsurface,Atlantic,DISCONTINUED,Delayed Mode Data; Accessible soon,1,,,,,,,USA,SIO,,http://mooring.ucsd.edu/projects/move/move_intro.html,ftp://ftp.ifremer.fr/ifremer/oceansites/MOVE,ftp://ftp.ifremer.fr/ifremer/oceansites/MOVE/metadata,Send; Begler; Lankhorst,usend@ucsd.edu;mlankhorst@ucsd.edu;cbegler@ucsd.edu,,MOVE,-,-,-
NTAS,NTAS,,TROPICAL ATLANTIC,NDBC,48401,200608,aplueddemann@whoi.edu,200901,NTAS (Northwest Tropical Atlantic Station),15.000,-51.000,surface,Atlantic,OPERATING,Real Time & Delayed Mode Data; Accessible,1,1,,,,1,1,USA,USA-WHOI,,http://uop.whoi.edu/projects/NTAS/ntas.htm,http://uop.whoi.edu/projects/NTAS/ntasdata.htm,http://www.marinemetadata.org,Plueddemann(WHOI),aplueddemann@whoi.edu,,NTAS,WHOI,ngalbraith@whoi.edu,WHOI
OVIDE-IRMINGERSEA-1,IRMINGERSEA-T1,OVIDE,, -, - ,200502,pascale.lherminier@ifremer.fr, - ,Irminger Sea OVIDE:1,59.700,-41.800,transport,Atlantic,OPERATING,Delayed Mode Data; Not Accessible,1,,,,,,,FRANCE,France-IFREMER,,http://www.ifremer.fr/lpo/ovide /, - ,,Lherminier,pascale.lherminier@ifremer.fr,,OVIDE,-,-,-
OVIDE-IRMINGERSEA-2,IRMINGERSEA-T2,OVIDE,, -, - ,200502,pascale.lherminier@ifremer.fr, - ,Irminger Sea OVIDE:2,59.800,-42.600,transport,Atlantic,OPERATING,Delayed Mode Data; Not Accessible,1,,,,,,,FRANCE,France-IFREMER,,http://www.ifremer.fr/lpo/ovide/ , - ,,Lherminier,pascale.lherminier@ifremer.fr,,OVIDE,-,-,-
P06N10W,P06N10W,PIRATA,TROPICAL ATLANTIC,(NDBC),15006, - ,nathalie.lefevre@ird.fr,200804,"pCO2 on PIRATA mooring at 06S, 10W",-6.000,-10.000,observatory,Atlantic,OPERATING,Real Time & Delayed Mode Data; Accessible,1,1,,1,1,,,FRANCE,France-IRDLOCEAN,,http://cdiac.ornl.gov/,http://www.locean-ipsl.upmc.fr/CO2tropiques/,,McPhaden (PMEL);Lefevre (LODYC),michael.j.mcphaden@noaa.gov;nathalie.lefevre@ird.fr,,PIRATA,-,-,-
P08N38W,P08N38W,PIRATA,TROPICAL ATLANTIC,(NDBC),13009, - ,nathalie.lefevre@ird.fr, - ,"pCO2 on PIRATA mooring at 8N, 38W",8.000,-38.000,observatory,Atlantic,OPERATING,Real Time & Delayed Mode Data; Accessible,1,1,,1,1,,,FRANCE,France-IRDLOCEAN,,http://cdiac.ornl.gov/,http://www.locean-ipsl.upmc.fr/CO2tropiques/,,McPhaden (PMEL);Lefevre (LODYC),michael.j.mcphaden@noaa.gov;nathalie.lefevre@ird.fr,,PIRATA,-,-,-
P0N23W,P0N23W,PIRATA,TROPICAL ATLANTIC,NDBC,31007,200608,michael.j.mcphaden@noaa.gov,200901,PIRATA at 0N 23 W,0.000,-23.000,observatory,Atlantic,OPERATING,Real Time & Delayed Mode Data; Accessible,1,1,1,,,1,,BR-FR-US,USA-NOAA/PMEL,,http://www.brest.ir.f/rpirata/piratafr.html,http://www.pmel.noaa.gov/pirata ,,McPhaden (PMEL),michael.j.mcphaden@noaa.gov;,on existing PIRATA mooring,PIRATA,PMEL,paul.Freitag@noaa.gov,PMEL
P10S10W,P10S10W,PIRATA,TROPICAL ATLANTIC,NDBC,15001,200608,michael.j.mcphaden@noaa.gov,200901,PIRATA at 10S 10W,-10.000,-10.000,surface,Atlantic,OPERATING,Real Time & Delayed Mode Data; Accessible,1,1,,,,,1,BR-FR-US,USA-NOAA/PMEL,,http://www.brest.ir.f/rpirata/piratafr.html,http://www.pmel.noaa.gov/pirata ,,McPhaden (PMEL),michael.j.mcphaden@noaa.gov;,flux reference on existing PIRATA mooring,PIRATA,PMEL,paul.Freitag@noaa.gov,PMEL
P12N23W,P12N23W,PIRATA,TROPICAL ATLANTIC,(NDBC),13001,200608,michael.j.mcphaden@noaa.gov,200901,PIRATA - enhancement,12.000,-23.000,surface,Atlantic,PLANNED,Real Time & Delayed Mode Data; Accessible soon,1,1,,,,,,BR-FR-US,USA-NOAA/PMEL,,http://www.brest.ir.f/rpirata/piratafr.html,http://www.pmel.noaa.gov/pirata ,,McPhaden (PMEL),michael.j.mcphaden@noaa.gov;, + O2 sensor on existing PIRATA mooring ,PIRATA,PMEL,paul.Freitag@noaa.gov,PMEL
P15N38W,P15N38W,PIRATA,TROPICAL ATLANTIC,NDBC,13008,200608,michael.j.mcphaden@noaa.gov,200901,PIRATA at 15N 38W,15.000,-38.000,surface,Atlantic,OPERATING,Real Time & Delayed Mode Data; Accessible,1,1,,,,,1,BR-FR-US,USA-NOAA/PMEL,,http://www.brest.ir.f/rpirata/piratafr.html,http://www.pmel.noaa.gov/pirata ,,McPhaden (PMEL),michael.j.mcphaden@noaa.gov;,flux reference on existing PIRATA mooring,PIRATA,PMEL,paul.Freitag@noaa.gov,PMEL
OOI-ARGENTINE,OOI-ARGENTINE,OOI,, -,NY, - ,usend@ucsd.edu, -,"Ocean Observatories Initiative, South Atlantic, Argentine Basin",-42.000,-42.000,observatory,Atlantic,PLANNED,Real Time & Delayed Mode Data; Accessible soon,1,1,1,1,1,1,1,USA,USA- NSF/WHOI/SIO/OSU,,http://www.whoi.edu/page.do?pid=22317, - ,,Weller; Send; Plueddemann,rweller@whoi.edu;aplueddemann@whoi.edu;usend@ucsd.edu,"Depth 5150m, Acoustically Linked Surface Mooring with Subsurface Profiler Mooring and Mesoscale Flanking Mooring Pair",OOI,-,-,-
MOCHA-A,MOCHA-A,RAPID-MOCHA,, -, -,200503,wjohns@rsmas.miami.edu,200901,MOCHA:A,26.500,-76.850,subsurface,Atlantic,OPERATING,Delayed Mode Data; Accessible,1,,,,,,,USA,USA-RSMAS,,http://www.rsmas.miami.edu/users/mocha/,http://www.bodc.ac.uk/rapidmoc/,,"William Johns (RSMAS, Miami)",wjohns@rsmas.miami.edu,"was ABACO:1, Meridional Overturning Circulation and HeatFlux Array at 26.5°N",RAPID-MOCHA,-,-,-
MOCHA-B,MOCHA-B,RAPID-MOCHA,, -, -,200501,wjohns@rsmas.miami.edu,200901,MOCHA:B,26.500,-76.500,subsurface,Atlantic,OPERATING,Delayed Mode Data; Accessible,1,,,,,,,USA,USA-RSMAS,,http://www.rsmas.miami.edu/users/mocha/,http://www.bodc.ac.uk/rapidmoc/,,"William Johns (RSMAS, Miami)",wjohns@rsmas.miami.edu,"was ABACO:2, Meridional Overturning Circulation and HeatFlux Array at 26.5°N",RAPID-MOCHA,-,-,-
MOCHA-E,MOCHA-E,RAPID-MOCHA,, -, -,200501,wjohns@rsmas.miami.edu,200901,MOCHA:E,26.500,-72.000,subsurface,Atlantic,OPERATING,Delayed Mode Data; Accessible,1,,,,,,,USA,USA-RSMAS,,http://www.rsmas.miami.edu/users/mocha/,http://www.bodc.ac.uk/rapidmoc/,,"William Johns (RSMAS, Miami)",wjohns@rsmas.miami.edu,"was ABACO:3, Meridional Overturning Circulation and HeatFlux Array at 26.5°N",RAPID-MOCHA,-,-,-
RAPID-EB0,RAPID-EB1,RAPID-MOCHA,, -, -,200608,scu@noc.soton.ac.uk,200901,RAPID-EB1,23.757,-24.128,transport,Atlantic,OPERATING,Delayed Mode Data; Accessible,1,,,,,,,UK,UK-NOCS,,http://www.noc.soton.ac.uk/rapid/,http://www.bodc.ac.uk/,,Cunningham (NOC);Darren Rayner;,scu@noc.soton.ac.uk;dr400@noc.soton.ac.uk,,RAPID-MOCHA,-,-,-
RAPID-EBH1,RAPID-EBH1,RAPID-MOCHA,, -, -,200608,scu@noc.soton.ac.uk,200901,RAPID-EBH1,27.286,-15.428,transport,Atlantic,OPERATING,Delayed Mode Data; Accessible,1,,,,,,,UK,UK-NOCS,,http://www.noc.soton.ac.uk/rapid/,http://www.bodc.ac.uk/,,Cunningham (NOC);Darren Rayner;,scu@noc.soton.ac.uk;dr400@noc.soton.ac.uk,,RAPID-MOCHA,-,-,-
RAPID-EBH2,RAPID-EBH2,RAPID-MOCHA,, -, -,200608,scu@noc.soton.ac.uk,200901,RAPID-EBH2,27.612,-14.212,transport,Atlantic,OPERATING,Delayed Mode Data; Accessible,1,,,,,,,UK,UK-NOCS,,http://www.noc.soton.ac.uk/rapid/,http://www.bodc.ac.uk/,,Cunningham (NOC);Darren Rayner;,scu@noc.soton.ac.uk;dr400@noc.soton.ac.uk,,RAPID-MOCHA,-,-,-
RAPID-EBH3,RAPID-EBH3,RAPID-MOCHA,, -, -,200608,scu@noc.soton.ac.uk,200901,RAPID-EBH3,27.813,-13.741,transport,Atlantic,OPERATING,Delayed Mode Data; Accessible,1,,,,,,,UK,UK-NOCS,,http://www.noc.soton.ac.uk/rapid/,http://www.bodc.ac.uk/,,Cunningham (NOC);Darren Rayner;,scu@noc.soton.ac.uk;dr400@noc.soton.ac.uk,,RAPID-MOCHA,-,-,-
RAPID-EBH4,RAPID-EBH4,RAPID-MOCHA,, -, -,200608,scu@noc.soton.ac.uk,200901,RAPID-EBH4,27.850,-13.540,transport,Atlantic,OPERATING,Delayed Mode Data; Accessible,1,,,,,,,UK,UK-NOCS,,http://www.noc.soton.ac.uk/rapid/,http://www.bodc.ac.uk/,,Cunningham (NOC);Darren Rayner;,scu@noc.soton.ac.uk;dr400@noc.soton.ac.uk,,RAPID-MOCHA,-,-,-
RAPID-EBH5,RAPID-EBH5,RAPID-MOCHA,, -, -,200608,scu@noc.soton.ac.uk,200901,RAPID-EBH5,27.839,-13.547,transport,Atlantic,OPERATING,Delayed Mode Data; Accessible,1,,,,,,,UK,UK-NOCS,,http://www.noc.soton.ac.uk/rapid/,http://www.bodc.ac.uk/,,Cunningham (NOC);Darren Rayner;,scu@noc.soton.ac.uk;dr400@noc.soton.ac.uk,,RAPID-MOCHA,-,-,-
RAPID-EBHi,RAPID-EBHi,RAPID-MOCHA,, -, -,200608,scu@noc.soton.ac.uk,200901,RAPID-EBHi,24.952,-21.269,transport,Atlantic,OPERATING,Delayed Mode Data; Accessible,1,,,,,,,UK,UK-NOCS,,http://www.noc.soton.ac.uk/rapid/,http://www.bodc.ac.uk/,,Cunningham (NOC);Darren Rayner;,scu@noc.soton.ac.uk;dr400@noc.soton.ac.uk,,RAPID-MOCHA,-,-,-
RAPID-EBL1,RAPID-EBL1,RAPID-MOCHA,, -, -,200608,scu@noc.soton.ac.uk,200901,RAPID-EBL1,23.802,-24.114,transport,Atlantic,OPERATING,Delayed Mode Data; Accessible,1,,,,,,,UK,UK-NOCS,,http://www.noc.soton.ac.uk/rapid/,http://www.bodc.ac.uk/,,Cunningham (NOC);Darren Rayner;,scu@noc.soton.ac.uk;dr400@noc.soton.ac.uk,,RAPID-MOCHA,-,-,-
RAPID-EBL2,RAPID-EBL2,RAPID-MOCHA,, -, -,200608,scu@noc.soton.ac.uk,200901,RAPID-EBL2,27.285,-15.428,transport,Atlantic,OPERATING,Delayed Mode Data; Accessible,1,,,,,,,UK,UK-NOCS,,http://www.noc.soton.ac.uk/rapid/,http://www.bodc.ac.uk/,,Cunningham (NOC);Darren Rayner;,scu@noc.soton.ac.uk;dr400@noc.soton.ac.uk,,RAPID-MOCHA,-,-,-
RAPID-EBL3,RAPID-EBL3,RAPID-MOCHA,, -, -,200608,scu@noc.soton.ac.uk,200901,RAPID-EBL3,23.887,-24.072,transport,Atlantic,OPERATING,Delayed Mode Data; Accessible,1,,,,,,,UK,UK-NOCS,,http://www.noc.soton.ac.uk/rapid/,http://www.bodc.ac.uk/,,Cunningham (NOC);Darren Rayner;,scu@noc.soton.ac.uk;dr400@noc.soton.ac.uk,,RAPID-MOCHA,-,-,-
RAPID-EBL4,RAPID-EBL4,RAPID-MOCHA,, -, -,200608,scu@noc.soton.ac.uk,200901,RAPID-EBL4,27.286,-15.429,transport,Atlantic,OPERATING,Delayed Mode Data; Accessible,1,,,,,,,UK,UK-NOCS,,http://www.noc.soton.ac.uk/rapid/,http://www.bodc.ac.uk/,,Cunningham (NOC);Darren Rayner;,scu@noc.soton.ac.uk;dr400@noc.soton.ac.uk,,RAPID-MOCHA,-,-,-
RAPID-EBM1,RAPID-EBM1,RAPID-MOCHA,, -, -,200608,scu@noc.soton.ac.uk,200901,RAPID-EBM1,27.894,-13.406,transport,Atlantic,OPERATING,Delayed Mode Data; Accessible,1,,,,,,,UK,UK-NOCS,,http://www.noc.soton.ac.uk/rapid/,http://www.bodc.ac.uk/,,Cunningham (NOC);Darren Rayner;,scu@noc.soton.ac.uk;dr400@noc.soton.ac.uk,,RAPID-MOCHA,-,-,-
RAPID-EBM4,RAPID-EBM4,RAPID-MOCHA,, -, -,200608,scu@noc.soton.ac.uk,200901,RAPID-EBM4,27.908,-13.368,transport,Atlantic,OPERATING,Delayed Mode Data; Accessible,1,,,,,,,UK,UK-NOCS,,http://www.noc.soton.ac.uk/rapid/,http://www.bodc.ac.uk/,,Cunningham (NOC);Darren Rayner;,scu@noc.soton.ac.uk;dr400@noc.soton.ac.uk,,RAPID-MOCHA,-,-,-
RAPID-EBM5,RAPID-EBM5,RAPID-MOCHA,, -, -,200608,scu@noc.soton.ac.uk,200901,RAPID-EBM5,27.910,-13.360,transport,Atlantic,OPERATING,Delayed Mode Data; Accessible,1,,,,,,,UK,UK-NOCS,,http://www.noc.soton.ac.uk/rapid/,http://www.bodc.ac.uk/,,Cunningham (NOC);Darren Rayner;,scu@noc.soton.ac.uk;dr400@noc.soton.ac.uk,,RAPID-MOCHA,-,-,-
RAPID-EBM6,RAPID-EBM6,RAPID-MOCHA,, -, -,200608,scu@noc.soton.ac.uk,200901,RAPID-EBM6,27.920,-13.332,transport,Atlantic,OPERATING,Delayed Mode Data; Accessible,1,,,,,,,UK,UK-NOCS,,http://www.noc.soton.ac.uk/rapid/,http://www.bodc.ac.uk/,,Cunningham (NOC);Darren Rayner;,scu@noc.soton.ac.uk;dr400@noc.soton.ac.uk,,RAPID-MOCHA,-,-,-
RAPID-EBP0,RAPID-EBP1,RAPID-MOCHA,, -, -,200608,scu@noc.soton.ac.uk,200901,RAPID-EBP1,23.823,-24.100,transport,Atlantic,OPERATING,Delayed Mode Data; Accessible,1,,,,,,,UK,UK-NOCS,,http://www.noc.soton.ac.uk/rapid/,http://www.bodc.ac.uk/,,Cunningham (NOC);Darren Rayner;,scu@noc.soton.ac.uk;dr400@noc.soton.ac.uk,,RAPID-MOCHA,-,-,-
RAPID-MAR0,RAPID-MAR0,RAPID-MOCHA,, -, -,200608,scu@noc.soton.ac.uk,200901,RAPID-MAR0,25.106,-52.010,transport,Atlantic,OPERATING,Delayed Mode Data; Accessible,1,,,,,,,UK,UK-NOCS,,http://www.noc.soton.ac.uk/rapid/,http://www.bodc.ac.uk/,,Cunningham (NOC);Darren Rayner;,scu@noc.soton.ac.uk;dr400@noc.soton.ac.uk,,RAPID-MOCHA,-,-,-
RAPID-MAR1,RAPID-MAR1,RAPID-MOCHA,, -, -,200608,scu@noc.soton.ac.uk,200901,RAPID-MAR1,24.176,-49.728,transport,Atlantic,OPERATING,Delayed Mode Data; Accessible,1,,,,,,,UK,UK-NOCS,,http://www.noc.soton.ac.uk/rapid/,http://www.bodc.ac.uk/,,Cunningham (NOC);Darren Rayner;,scu@noc.soton.ac.uk;dr400@noc.soton.ac.uk,,RAPID-MOCHA,-,-,-
RAPID-MAR2,RAPID-MAR2,RAPID-MOCHA,, -, -,200608,scu@noc.soton.ac.uk,200901,RAPID-MAR2,24.177,-49.756,transport,Atlantic,OPERATING,Delayed Mode Data; Accessible,1,,,,,,,UK,UK-NOCS,,http://www.noc.soton.ac.uk/rapid/,http://www.bodc.ac.uk/,,Cunningham (NOC);Darren Rayner;,scu@noc.soton.ac.uk;dr400@noc.soton.ac.uk,,RAPID-MOCHA,-,-,-
RAPID-MAR3,RAPID-MAR3,RAPID-MOCHA,, -, -,200608,scu@noc.soton.ac.uk,200901,RAPID-MAR3,23.871,-41.089,transport,Atlantic,OPERATING,Delayed Mode Data; Accessible,1,,,,,,,UK,UK-NOCS,,http://www.noc.soton.ac.uk/rapid/,http://www.bodc.ac.uk/,,Cunningham (NOC);Darren Rayner;,scu@noc.soton.ac.uk;dr400@noc.soton.ac.uk,,RAPID-MOCHA,-,-,-
RAPID-MARL1,RAPID-MARL1,RAPID-MOCHA,, -, -,200608,scu@noc.soton.ac.uk,200901,RAPID-MARL1,24.195,-49.711,transport,Atlantic,OPERATING,Delayed Mode Data; Accessible,1,,,,,,,UK,UK-NOCS,,http://www.noc.soton.ac.uk/rapid/,http://www.bodc.ac.uk/,,Cunningham (NOC);Darren Rayner;,scu@noc.soton.ac.uk;dr400@noc.soton.ac.uk,,RAPID-MOCHA,-,-,-
RAPID-MARL2,RAPID-MARL2,RAPID-MOCHA,, -, -,200608,scu@noc.soton.ac.uk,200901,RAPID-MARL2,23.866,-41.092,transport,Atlantic,OPERATING,Delayed Mode Data; Accessible,1,,,,,,,UK,UK-NOCS,,http://www.noc.soton.ac.uk/rapid/,http://www.bodc.ac.uk/,,Cunningham (NOC);Darren Rayner;,scu@noc.soton.ac.uk;dr400@noc.soton.ac.uk,,RAPID-MOCHA,-,-,-
RAPID-MARL3,RAPID-MARL3,RAPID-MOCHA,, -, -,200608,scu@noc.soton.ac.uk,200901,RAPID-MARL3,24.204,-49.728,transport,Atlantic,OPERATING,Delayed Mode Data; Accessible,1,,,,,,,UK,UK-NOCS,,http://www.noc.soton.ac.uk/rapid/,http://www.bodc.ac.uk/,,Cunningham (NOC);Darren Rayner;,scu@noc.soton.ac.uk;dr400@noc.soton.ac.uk,,RAPID-MOCHA,-,-,-
RAPID-MARL4,RAPID-MARL4,RAPID-MOCHA,, -, -,200608,scu@noc.soton.ac.uk,200901,RAPID-MARL4,23.860,-41.101,transport,Atlantic,OPERATING,Delayed Mode Data; Accessible,1,,,,,,,UK,UK-NOCS,,http://www.noc.soton.ac.uk/rapid/,http://www.bodc.ac.uk/,,Cunningham (NOC);Darren Rayner;,scu@noc.soton.ac.uk;dr400@noc.soton.ac.uk,,RAPID-MOCHA,-,-,-
RAPID-WB1,RAPID-WB1,RAPID-MOCHA,, -, -,200608,scu@noc.soton.ac.uk,200901,RAPID-WB1,26.500,-76.821,transport,Atlantic,OPERATING,Delayed Mode Data; Accessible,1,,,,,,,UK,UK-NOCS,,http://www.noc.soton.ac.uk/rapid/,http://www.bodc.ac.uk/,,Cunningham (NOC);Darren Rayner;,scu@noc.soton.ac.uk;dr400@noc.soton.ac.uk,,RAPID-MOCHA,-,-,-
RAPID-WB2,RAPID-WB2,RAPID-MOCHA,, -, -,200608,scu@noc.soton.ac.uk,200901,RAPID-WB2,26.502,-76.742,transport,Atlantic,OPERATING,Delayed Mode Data; Accessible,1,,,,,,,UK,UK-NOCS,,http://www.noc.soton.ac.uk/rapid/,http://www.bodc.ac.uk/,,Cunningham (NOC);Darren Rayner;,scu@noc.soton.ac.uk;dr400@noc.soton.ac.uk,,RAPID-MOCHA,-,-,-
RAPID-WB4,RAPID-WB4,RAPID-MOCHA,, -, -,200608,scu@noc.soton.ac.uk,200901,RAPID-WB4,26.415,-75.698,transport,Atlantic,OPERATING,Delayed Mode Data; Accessible,1,,,,,,,UK,UK-NOCS,,http://www.noc.soton.ac.uk/rapid/,http://www.bodc.ac.uk/,,Cunningham (NOC);Darren Rayner;,scu@noc.soton.ac.uk;dr400@noc.soton.ac.uk,,RAPID-MOCHA,-,-,-
RAPID-WB6,RAPID-WB6,RAPID-MOCHA,, -, -,200608,scu@noc.soton.ac.uk,200901,RAPID-WB6,26.500,-70.520,transport,Atlantic,OPERATING,Delayed Mode Data; Accessible,1,,,,,,,UK,UK-NOCS,,http://www.noc.soton.ac.uk/rapid/,http://www.bodc.ac.uk/,,Cunningham (NOC);Darren Rayner;,scu@noc.soton.ac.uk;dr400@noc.soton.ac.uk,,RAPID-MOCHA,-,-,-
RAPID-WBADCP,RAPID-WBADCP,RAPID-MOCHA,, -, -,200608,scu@noc.soton.ac.uk,200901,RAPID-WBADCP,26.525,-76.869,transport,Atlantic,OPERATING,Delayed Mode Data; Accessible,1,,,,,,,UK,UK-NOCS,,http://www.noc.soton.ac.uk/rapid/,http://www.bodc.ac.uk/,,Cunningham (NOC);Darren Rayner;,scu@noc.soton.ac.uk;dr400@noc.soton.ac.uk,,RAPID-MOCHA,-,-,-
RAPID-WBH1,RAPID-WBH2,RAPID-MOCHA,, -, -,200608,scu@noc.soton.ac.uk,200901,RAPID-WBH2,26.465,-76.651,transport,Atlantic,OPERATING,Delayed Mode Data; Accessible,1,,,,,,,UK,UK-NOCS,,http://www.noc.soton.ac.uk/rapid/,http://www.bodc.ac.uk/,,Cunningham (NOC);Darren Rayner;,scu@noc.soton.ac.uk;dr400@noc.soton.ac.uk,,RAPID-MOCHA,-,-,-
RAPID-WBL1,RAPID-WBL1,RAPID-MOCHA,, -, -,200608,scu@noc.soton.ac.uk,200901,RAPID-WBL1,26.506,-76.745,transport,Atlantic,OPERATING,Delayed Mode Data; Accessible,1,,,,,,,UK,UK-NOCS,,http://www.noc.soton.ac.uk/rapid/,http://www.bodc.ac.uk/,,Cunningham (NOC);Darren Rayner;,scu@noc.soton.ac.uk;dr400@noc.soton.ac.uk,,RAPID-MOCHA,-,-,-
RAPID-WBL2,RAPID-WBL2,RAPID-MOCHA,, -, -,200608,scu@noc.soton.ac.uk,200901,RAPID-WBL2,26.517,-76.148,transport,Atlantic,OPERATING,Delayed Mode Data; Accessible,1,,,,,,,UK,UK-NOCS,,http://www.noc.soton.ac.uk/rapid/,http://www.bodc.ac.uk/,,Cunningham (NOC);Darren Rayner;,scu@noc.soton.ac.uk;dr400@noc.soton.ac.uk,,RAPID-MOCHA,-,-,-
RAPID-WBL3,RAPID-WBL3,RAPID-MOCHA,, -, -,200608,scu@noc.soton.ac.uk,200901,RAPID-WBL3,26.507,-76.744,transport,Atlantic,OPERATING,Delayed Mode Data; Accessible,1,,,,,,,UK,UK-NOCS,,http://www.noc.soton.ac.uk/rapid/,http://www.bodc.ac.uk/,,Cunningham (NOC);Darren Rayner;,scu@noc.soton.ac.uk;dr400@noc.soton.ac.uk,,RAPID-MOCHA,-,-,-
RAPID-WBL4,RAPID-WBL4,RAPID-MOCHA,, -, -,200608,scu@noc.soton.ac.uk,200901,RAPID-WBL4,26.404,-75.710,transport,Atlantic,OPERATING,Delayed Mode Data; Accessible,1,,,,,,,UK,UK-NOCS,,http://www.noc.soton.ac.uk/rapid/,http://www.bodc.ac.uk/,,Cunningham (NOC);Darren Rayner;,scu@noc.soton.ac.uk;dr400@noc.soton.ac.uk,,RAPID-MOCHA,-,-,-
RAPID-WBLB,RAPID-WBLB,RAPID-MOCHA,, -, -,200608,scu@noc.soton.ac.uk,200901,RAPID-WBLB,26.499,-76.494,transport,Atlantic,OPERATING,Delayed Mode Data; Accessible,1,,,,,,,UK,UK-NOCS,,http://www.noc.soton.ac.uk/rapid/,http://www.bodc.ac.uk/,,Cunningham (NOC);Darren Rayner;,scu@noc.soton.ac.uk;dr400@noc.soton.ac.uk,,RAPID-MOCHA,-,-,-
LINE-W,LINE-W1,,GULF STREAM,NDBC,NY,200609,jtoole@whoi.edu,200901,Line W-1,39.602,-69.717,subsurface,Atlantic,OPERATING,Delayed Mode Data; Accessible,1,,,1,,,,USA,USA-WHOI,,http://www.whoi.edu/science/PO/linew/,http://www.whoi.edu/science/PO/linew/data/index.htm,ftp://data.ndbc.noaa.gov/data/oceansites/LINE-W1(future),Toole (WHOI);R Curry (WHOI),jtoole@whoi.edu;rcurry@whoi.edu,"T/C, ADCP, CM",,WHOI (PLANNED),ngalbraith@whoi.edu,-
LINE-W,LINE-W2,,GULF STREAM,NDBC,NY,200609,jtoole@whoi.edu,200901,Line W-2,39.217,-69.445,subsurface,Atlantic,OPERATING,Delayed Mode Data; Accessible,1,,,1,,,,USA,USA-WHOI,,http://www.whoi.edu/science/PO/linew/,http://www.whoi.edu/science/PO/linew/data/index.htm,ftp://data.ndbc.noaa.gov/data/oceansites/LINE-W2(future),Toole (WHOI);R Curry (WHOI),jtoole@whoi.edu;rcurry@whoi.edu,"MP , CM, T/C",,WHOI (PLANNED),ngalbraith@whoi.edu,-
LINE-W,LINE-W3,,GULF STREAM,NDBC,NY,200609,jtoole@whoi.edu,200901,Line W-3,38.845,-69.188,subsurface,Atlantic,OPERATING,Delayed Mode Data; Accessible,1,,,1,,,,USA,USA-WHOI,,http://www.whoi.edu/science/PO/linew/,http://www.whoi.edu/science/PO/linew/data/index.htm,ftp://data.ndbc.noaa.gov/data/oceansites/LINE-W3(future),Toole (WHOI);R Curry (WHOI),jtoole@whoi.edu;rcurry@whoi.edu,"T/C, CM",,WHOI (PLANNED),ngalbraith@whoi.edu,-
LINE-W,LINE-W4,,GULF STREAM,NDBC,NY,200609,jtoole@whoi.edu,200901,Line W-4,38.425,-68.903,subsurface,Atlantic,OPERATING,Delayed Mode Data; Accessible,1,,,1,,,,USA,USA-WHOI,,http://www.whoi.edu/science/PO/linew/,http://www.whoi.edu/science/PO/linew/data/index.htm,ftp://data.ndbc.noaa.gov/data/oceansites/LINE-W4(future),Toole (WHOI);R Curry (WHOI),jtoole@whoi.edu;rcurry@whoi.edu,"MP, T/C, CM",,WHOI (PLANNED),ngalbraith@whoi.edu,-
LINE-W,LINE-W5,,GULF STREAM,NDBC,NY,200609,jtoole@whoi.edu,200901,Line W-5,38.073,-68.663,subsurface,Atlantic,OPERATING,Delayed Mode Data; Accessible,1,,,1,,,,USA,USA-WHOI,,http://www.whoi.edu/science/PO/linew/,http://www.whoi.edu/science/PO/linew/data/index.htm,ftp://data.ndbc.noaa.gov/data/oceansites/LINE-W5(future),Toole (WHOI);R Curry (WHOI),jtoole@whoi.edu;rcurry@whoi.edu,"T/C, CM",,WHOI (PLANNED),ngalbraith@whoi.edu,-
VEMA-CHANNEL-E,VC-EAST,VEMA-CHANNEL,, -, - ,200608,tmueller@ifm-geomar.de,200902,VEMA channel East,-31.255,-39.316,subsurface,Atlantic,OPERATING,Delayed Mode Data; Not Accessible,1,,,,,,,GERMANY,GERMANY-IFMGEOMAR,,, - ,,Müller (IFMGEOMAR);Walter Zenk;N Hogg; M Visbeck,tmueller@ifm-geomar.de,,VEMA-CHANNEL,-,-,-
VEMA-CHANNEL-W,VC-WEST,VEMA-CHANNEL,, -, - ,200608,tmueller@ifm-geomar.de,200902,VEMA channel West,-31.260,-39.453,subsurface,Atlantic,OPERATING,Delayed Mode Data; Not Accessible,1,,,,,,,GERMANY,GERMANY-IFMGEOMAR,,, - ,,Müller (IFMGEOMAR);Walter Zenk;N Hogg; M Visbeck,tmueller@ifm-geomar.de,,VEMA-CHANNEL,-,-,-
FLORIDA-T1,FLORIDA-T1,,, -,NY,200608,Christopher.Meinen@noaa.gov,200812,Western Boundary Time Series - Florida Transport:1,27.000,-77.000,transport,Atlantic,OPERATING,Real Time Data; Accessible,1,,,,,,,USA,USA-NOAA/AOML,,http://www.aoml.noaa.gov/phod/Floridacurrent/,http://www.aoml.noaa.gov/phod/Floridacurrent/data_access.php,http://www.aoml.noaa.gov/phod/Floridacurrent/data_access.php,Meinen;Baringer,Christopher.Meinen@noaa.gov;Molly.Baringer@noaa.gov,,WBTS,-,-,-
FLORIDA-T2,FLORIDA-T2,,, -,NY,200608,Christopher.Meinen@noaa.gov,200812,Western Boundary Time Series - Florida Transport:2,27.000,-80.000,transport,Atlantic,OPERATING,Real Time Data; Accessible,1,,,,,,,USA,USA-NOAA/AOML,,http://www.aoml.noaa.gov/phod/Floridacurrent/,http://www.aoml.noaa.gov/phod/Floridacurrent/data_access.php,http://www.aoml.noaa.gov/phod/Floridacurrent/data_access.php,Meinen;Baringer,Christopher.Meinen@noaa.gov;Molly.Baringer@noaa.gov,,WBTS,-,-,-
WTR,WTR-CURRENTMETER,ASOF,, - ,NY,201001,toby.sherwin@sams.ac.uk, - ,"Wyville Thomson Ridge Overflow, Greenland Sea",60.250,-8.870,transport,Atlantic,OPERATING,Delayed Mode Data; Accessible,1,,1,,,,,UK,SAMS,,http://www.sams.ac.uk,,,Sherwin (SAMS);Read (NOC) ,toby.sherwin@sams.ac.uk;jfr@noc.soton.ac.uk,,ASOF,BODC (PLANNED),jfr@noc.soton.ac.uk,BODC
 - , - ,ASOF,, -, - ,200503,gbudeus@awi-bremerhaven.de, - ,Greenland Sea,75.000,-3.500,subsurface,Atlantic,DISCONTINUED,Delayed Mode Data; Not Accessible,1,,,,,,,GERMANY,GERMANY-AWI,,,,,Budeus; Gereon  (AWI),gbudeus@awi-bremerhaven.de,,ASOF,-,-,-
NDBP-CVAL,CVAL,INCOIS,,NDBC,23102,200608,pattabhi@incois.gov.in,200901,NIOT CVAL,13.180,80.390,surface,Indian,OPERATING,Real Time & Delayed Mode Data; Accessible,,1,,,,,,INDIA,INDIA-NIOT,,http://www.niot.res.in/op/ndbp/ndbp_about.php,ftp://data.ndbc.noaa.gov/data/oceansites/INCOIS/,ftp://data.ndbc.noaa.gov/data/oceansites/,"Venkatsen, Pattabhi",venkat@niot.res.in;pattabhi@incois.gov.in,,INCOIS,INCOIS,pattabhi@incois.gov.in,INCOIS
NDBP-MB04,MB04,INCOIS,,NDBC,23451,200608,pattabhi@incois.gov.in,200901,NIOT MB04,20.880,71.490,surface,Indian,OPERATING,Real Time & Delayed Mode Data; Accessible,,1,,,,,,INDIA,INDIA-NIOT,,http://www.niot.res.in/op/ndbp/ndbp_about.php,ftp://data.ndbc.noaa.gov/data/oceansites/INCOIS/,ftp://data.ndbc.noaa.gov/data/oceansites/,"Venkatsen, Pattabhi",venkat@niot.res.in;pattabhi@incois.gov.in,,INCOIS,INCOIS,pattabhi@incois.gov.in,INCOIS
NDBP-MB09,MB09,INCOIS,,NDBC,23456?,200608,pattabhi@incois.gov.in,200901,NIOT MB09,16.990,71.100,surface,Indian,OPERATING,Real Time & Delayed Mode Data; Accessible,,1,,,,,,INDIA,INDIA-NIOT,,http://www.niot.res.in/op/ndbp/ndbp_about.php,ftp://data.ndbc.noaa.gov/data/oceansites/INCOIS/,ftp://data.ndbc.noaa.gov/data/oceansites/,"Venkatsen, Pattabhi",venkat@niot.res.in;pattabhi@incois.gov.in,,INCOIS,INCOIS,pattabhi@incois.gov.in,INCOIS
NDBP-MB20,MB20,INCOIS,,NDBC,23491,200608,pattabhi@incois.gov.in,200901,NIOT MB20,15.010,73.020,surface,Indian,OPERATING,Real Time & Delayed Mode Data; Accessible,,1,,,,,,INDIA,INDIA-NIOT,,http://www.niot.res.in/op/ndbp/ndbp_about.php,ftp://data.ndbc.noaa.gov/data/oceansites/INCOIS/,ftp://data.ndbc.noaa.gov/data/oceansites/,"Venkatsen, Pattabhi",venkat@niot.res.in;pattabhi@incois.gov.in,,INCOIS,INCOIS,pattabhi@incois.gov.in,INCOIS
NDBP-MB23,MB23,INCOIS,,NDBC,23170,200608,pattabhi@incois.gov.in,200901,NIOT MB23,12.940,74.720,surface,Indian,OPERATING,Real Time & Delayed Mode Data; Accessible,,1,,,,,,INDIA,INDIA-NIOT,,http://www.niot.res.in/op/ndbp/ndbp_about.php,ftp://data.ndbc.noaa.gov/data/oceansites/INCOIS/,ftp://data.ndbc.noaa.gov/data/oceansites/,"Venkatsen, Pattabhi",venkat@niot.res.in;pattabhi@incois.gov.in,,INCOIS,INCOIS,pattabhi@incois.gov.in,INCOIS
NDBP-MB24,MB24,INCOIS,,NDBC,23098,200608,pattabhi@incois.gov.in,200901,NIOT MB24,8.700,78.230,surface,Indian,OPERATING,Real Time & Delayed Mode Data; Accessible,,1,,,,,,INDIA,INDIA-NIOT,,http://www.niot.res.in/op/ndbp/ndbp_about.php,ftp://data.ndbc.noaa.gov/data/oceansites/INCOIS/,ftp://data.ndbc.noaa.gov/data/oceansites/,"Venkatsen, Pattabhi",venkat@niot.res.in;pattabhi@incois.gov.in,,INCOIS,INCOIS,pattabhi@incois.gov.in,INCOIS
NDBP-MB26,MB26,INCOIS,,NDBC,23494,200608,pattabhi@incois.gov.in,200901,NIOT MB26,12.140,90.770,surface,Indian,OPERATING,Real Time & Delayed Mode Data; Accessible,,1,,,,,,INDIA,INDIA-NIOT,,http://www.niot.res.in/op/ndbp/ndbp_about.php,ftp://data.ndbc.noaa.gov/data/oceansites/INCOIS/,ftp://data.ndbc.noaa.gov/data/oceansites/,"Venkatsen, Pattabhi",venkat@niot.res.in;pattabhi@incois.gov.in,,INCOIS,INCOIS,pattabhi@incois.gov.in,INCOIS
NDBP-OB10,OB10,INCOIS,,NDBC,23101,200608,pattabhi@incois.gov.in,200901,NIOT OB10,15.500,69.280,surface,Indian,OPERATING,Real Time & Delayed Mode Data; Accessible,1,1,,,,,,INDIA,INDIA-NIOT,,http://www.niot.res.in/op/ndbp/ndbp_about.php,ftp://data.ndbc.noaa.gov/data/oceansites/INCOIS/,ftp://data.ndbc.noaa.gov/data/oceansites/,"Venkatsen, Pattabhi",venkat@niot.res.in;pattabhi@incois.gov.in,,INCOIS,INCOIS,pattabhi@incois.gov.in,INCOIS
NDBP-OB12,OB12,INCOIS,,NDBC,23455,200608,pattabhi@incois.gov.in,200901,NIOT OB12,10.650,72.510,surface,Indian,OPERATING,Real Time & Delayed Mode Data; Accessible,1,1,,,,,,INDIA,INDIA-NIOT,,http://www.niot.res.in/op/ndbp/ndbp_about.php,ftp://data.ndbc.noaa.gov/data/oceansites/INCOIS/,ftp://data.ndbc.noaa.gov/data/oceansites/,"Venkatsen, Pattabhi",venkat@niot.res.in;pattabhi@incois.gov.in,,INCOIS,INCOIS,pattabhi@incois.gov.in,INCOIS
INDONTF-T1,INDONTF-T1,INDONTF,, -, -,200504,agordon@ldeo.columbia.edu,200901,Indonesian throughflow:1,-3.000,118.450,transport,Indian,OPERATING,Delayed Mode Data; Accessible,1,,,,,,,USA,USA-INSTANT/LDEO/SIO,,http://www.ldeo.columbia.edu/res/div/ocp/projects/instant.shtml,http://www.ldeo.columbia.edu/res/div/ocp/projects/instant.shtml,,Gordon;Huber;R.Dwi Susanto,agordon@ldeo.columbia.edu;bhuber@ldeo.columbia.edu;dwi@ldeo.columbia.edu,several locations,INDONTF,-,-,-
INDONTF-T2,INDONTF-T2,INDONTF,, -, -,200504,agordon@ldeo.columbia.edu,200901,Indonesian throughflow:2,-9.000,123.000,transport,Indian,DISCONTINUED,Delayed Mode Data; Accessible,1,,,,,,,USA,USA-INSTANT/LDEO/SIO,,http://www.ldeo.columbia.edu/res/div/ocp/projects/instant.shtml,http://www.ldeo.columbia.edu/res/div/ocp/projects/instant.shtml,,Gordon;Huber;R.Dwi Susanto,agordon@ldeo.columbia.edu;bhuber@ldeo.columbia.edu;dwi@ldeo.columbia.edu,several locations,INDONTF,-,-,-
MOZCHANNEL,MOZCHANNEL-T1,LOCO,,(IFREMER), - ,200502,rid@nioz.nl,200902,LOCO Mozambique Channel:1,-17.000,40.000,transport,Indian,OPERATING,Delayed Mode Data; Accessible,1,,,,,,,USA,LOCO,,http://www.nioz.nl/projects/acsex,http://www.nioz.nl/dmg,,"H. Ridderinkhof, H. van Aken and W.P.M. de Ruijter",rid@nioz.nl;W.P.M.deRuijter@phys.uu.nl;aken@nioz.nl,sediment trap,MOZAMBIQUE,NIOZ (PLANNED),bruin@nioz.nl,NIOZ
MOZCHANNEL,MOZCHANNEL-T2,LOCO,,(IFREMER), - ,200502,rid@nioz.nl,200902,LOCO Mozambique Channel:2,-17.050,40.429,transport,Indian,OPERATING,Delayed Mode Data; Accessible,1,,,,,,,USA,LOCO,,http://www.nioz.nl/projects/acsex,http://www.nioz.nl/dmg,,"H. Ridderinkhof, H. van Aken and W.P.M. de Ruijter",rid@nioz.nl;W.P.M.deRuijter@phys.uu.nl;aken@nioz.nl,sediment trap,MOZAMBIQUE,NIOZ (PLANNED),bruin@nioz.nl,NIOZ
MOZCHANNEL,MOZCHANNEL-T3,LOCO,,(IFREMER), - ,200502,rid@nioz.nl,200902,LOCO Mozambique Channel:3,-17.100,40.857,transport,Indian,OPERATING,Delayed Mode Data; Accessible,1,,,,,,,USA,LOCO,,http://www.nioz.nl/projects/acsex,http://www.nioz.nl/dmg,,"H. Ridderinkhof, H. van Aken and W.P.M. de Ruijter",rid@nioz.nl;W.P.M.deRuijter@phys.uu.nl;aken@nioz.nl,sediment trap,MOZAMBIQUE,NIOZ (PLANNED),bruin@nioz.nl,NIOZ
MOZCHANNEL,MOZCHANNEL-T4,LOCO,,(IFREMER), - ,200502,rid@nioz.nl,200902,LOCO Mozambique Channel:4,-17.200,41.286,transport,Indian,OPERATING,Delayed Mode Data; Accessible,1,,,,,,,USA,LOCO,,http://www.nioz.nl/projects/acsex,http://www.nioz.nl/dmg,,"H. Ridderinkhof, H. van Aken and W.P.M. de Ruijter",rid@nioz.nl;W.P.M.deRuijter@phys.uu.nl;aken@nioz.nl,sediment trap,MOZAMBIQUE,NIOZ (PLANNED),bruin@nioz.nl,NIOZ
MOZCHANNEL,MOZCHANNEL-T5,LOCO,,(IFREMER), - ,200502,rid@nioz.nl,200902,LOCO Mozambique Channel:5,-17.300,41.714,transport,Indian,OPERATING,Delayed Mode Data; Accessible,1,,,,,,,USA,LOCO,,http://www.nioz.nl/projects/acsex,http://www.nioz.nl/dmg,,"H. Ridderinkhof, H. van Aken and W.P.M. de Ruijter",rid@nioz.nl;W.P.M.deRuijter@phys.uu.nl;aken@nioz.nl,sediment trap,MOZAMBIQUE,NIOZ (PLANNED),bruin@nioz.nl,NIOZ
MOZCHANNEL,MOZCHANNEL-T6,LOCO,,(IFREMER), - ,200502,rid@nioz.nl,200902,LOCO Mozambique Channel:6,-17.400,42.143,transport,Indian,OPERATING,Delayed Mode Data; Accessible,1,,,,,,,USA,LOCO,,http://www.nioz.nl/projects/acsex,http://www.nioz.nl/dmg,,"H. Ridderinkhof, H. van Aken and W.P.M. de Ruijter",rid@nioz.nl;W.P.M.deRuijter@phys.uu.nl;aken@nioz.nl,sediment trap,MOZAMBIQUE,NIOZ (PLANNED),bruin@nioz.nl,NIOZ
MOZCHANNEL,MOZCHANNEL-T7,LOCO,,(IFREMER), - ,200502,rid@nioz.nl,200902,LOCO Mozambique Channel:7,-17.500,43.000,transport,Indian,OPERATING,Delayed Mode Data; Accessible,1,,,,,,,USA,LOCO,,http://www.nioz.nl/projects/acsex,http://www.nioz.nl/dmg,,"H. Ridderinkhof, H. van Aken and W.P.M. de Ruijter",rid@nioz.nl;W.P.M.deRuijter@phys.uu.nl;aken@nioz.nl,sediment trap,MOZAMBIQUE,NIOZ (PLANNED),bruin@nioz.nl,NIOZ
CM-EQCM3A-77E,CM-EQCM3A-77E,RAMA,TROPICAL INDIAN,NDBC, -,200608,vsnmurty@nio.org, - ,IO OOS moorings,0.000,77.000,subsurface,Indian,OPERATING,Delayed Mode Data; Accessible,1,,,,,,,INDIA,INDIA-NIO,,http://www.nio.org/data_info/deep-sea_mooring/oos-deep-sea-currentmeter-moorings.htm/,http://www.nio.org/data_info/deep-sea_mooring/oos-deep-sea-currentmeter-moorings.htm/,,VSNMurty,vsnmurty@nio.org; ,,RAMA,INCOIS,pattabhi@incois.gov.in,INCOIS
CM-EQCM2-83E,CM-EQCM2-83E,RAMA,TROPICAL INDIAN,NDBC, -,200608,vsnmurty@nio.org, - ,IO OOS moorings,0.000,83.000,subsurface,Indian,OPERATING,Delayed Mode Data; Accessible,1,,,,,,,INDIA,INDIA-NIO,,http://www.nio.org/data_info/deep-sea_mooring/oos-deep-sea-currentmeter-moorings.htm/,http://www.nio.org/data_info/deep-sea_mooring/oos-deep-sea-currentmeter-moorings.htm/,,VSNMurty,vsnmurty@nio.org,,RAMA,INCOIS,pattabhi@incois.gov.in,INCOIS
CM-EQCM1-93E,CM-EQCM1-93E,RAMA,TROPICAL INDIAN,NDBC, -,200608,vsnmurty@nio.org, - ,IO OOS moorings,0.000,93.000,subsurface,Indian,OPERATING,Delayed Mode Data; Accessible,1,,,,,,,INDIA,INDIA-NIO,,http://www.nio.org/data_info/deep-sea_mooring/oos-deep-sea-currentmeter-moorings.htm/,http://www.nio.org/data_info/deep-sea_mooring/oos-deep-sea-currentmeter-moorings.htm/,,VSNMurty,vsnmurty@nio.org,,RAMA,INCOIS,pattabhi@incois.gov.in,INCOIS
CM-EQCM3-76E,CM-EQCM3-76E,RAMA,TROPICAL INDIAN,NDBC, -, - ,vsnmurty@nio.org, - ,IO OOS moorings,0.000,76.000,subsurface,Indian,OPERATING,Delayed Mode Data; Accessible,2,,,,,,,INDIA,INDIA-NIO,,http://www.nio.org/data_info/deep-sea_mooring/oos-deep-sea-currentmeter-moorings.htm/,http://www.nio.org/data_info/deep-sea_mooring/oos-deep-sea-currentmeter-moorings.htm/,,VSNMurty,vsnmurty@nio.org,,RAMA,INCOIS,pattabhi@incois.gov.in,INCOIS
R0N55E,R0N55E,RAMA,TROPICAL INDIAN,NDBC, -,200608,michael.j.mcphaden@noaa.gov,200901,RAMA - Western Eq. IO,0.000,55.000,surface,Indian,PLANNED,Real Time & Delayed Mode Data; Accessible soon,1,1,,1,,1,,USA/IN,USA/INDIA-NOAA/PMEL/INCOIS,,http://www.pmel.noaa.gov/tao/proj_over/mooring.shtml,ftp://data.ndbc.noaa.gov/data/oceansites/RAMA/,,McPhaden (PMEL),michael.j.mcphaden@noaa.gov;Bronte.Tilbrook@csiro.au,,RAMA,-,-,-
R0N80.5E,R0N80.5E,RAMA,TROPICAL INDIAN,NDBC,23001,200608,michael.j.mcphaden@noaa.gov,200901,RAMA - Central Eq. IO,0.000,80.500,surface,Indian,OPERATING,Real Time & Delayed Mode Data; Accessible,1,1,,,,1,1,USA/IN,USA/INDIA-NOAA/PMEL/INCOIS,,http://www.pmel.noaa.gov/tao/proj_over/mooring.shtml,http://www.pmel.noaa.gov/tao/disdel ,,McPhaden (PMEL),michael.j.mcphaden@noaa.gov;Bronte.Tilbrook@csiro.au;vsnmurty@nio.org,,RAMA,PMEL,paul.Freitag@noaa.gov,PMEL
R15N65E,R15N65E,RAMA,TROPICAL INDIAN, -, -,200608,michael.j.mcphaden@noaa.gov,200901,RAMA - Arabian Sea,15.000,65.000,surface,Indian,PLANNED,Real Time & Delayed Mode Data; Accessible soon,1,1,1,1,,1,,USA,USA-NOAA/PMEL,,http://www.pmel.noaa.gov/tao/proj_over/mooring.shtml,ftp://data.ndbc.noaa.gov/data/oceansites/RAMA/,,McPhaden (PMEL),michael.j.mcphaden@noaa.gov;Bronte.Tilbrook@csiro.au,,RAMA,-,-,-
R15N90E,R15N90E,RAMA,TROPICAL INDIAN,NDBC,23009,200608,michael.j.mcphaden@noaa.gov,200901,RAMA - Bay of Bengal,15.000,90.000,surface,Indian,OPERATING,Real Time & Delayed Mode Data; Accessible,1,1,,1,,1,1,USA/IN,USA/INDIA-NOAA/PMEL/INCOIS,,http://www.pmel.noaa.gov/tao/proj_over/mooring.shtml,http://www.pmel.noaa.gov/tao/disdel ,,McPhaden (PMEL),michael.j.mcphaden@noaa.gov;Bronte.Tilbrook@csiro.au;vsnmurty@nio.org,,RAMA,PMEL,paul.Freitag@noaa.gov,PMEL
R16S55E,R16S55E,RAMA,TROPICAL INDIAN, -, -,200608,michael.j.mcphaden@noaa.gov,200901,RAMA - Southwestern IO,-16.000,55.000,surface,Indian,PLANNED,Real Time & Delayed Mode Data; Accessible soon,1,1,,1,,1,,USA,USA-NOAA/PMEL,,http://www.pmel.noaa.gov/tao/proj_over/mooring.shtml,ftp://data.ndbc.noaa.gov/data/oceansites/RAMA/,,McPhaden (PMEL),michael.j.mcphaden@noaa.gov;Bronte.Tilbrook@csiro.au,,RAMA,-,-,-
R25S97E,R25S97E,RAMA,TROPICAL INDIAN, -, -,200608,michael.j.mcphaden@noaa.gov,200901,RAMA - Subduction Zone,-25.000,97.000,surface,Indian,PLANNED,Real Time & Delayed Mode Data; Accessible soon,1,1,,1,,1,,USA,USA-NOAA/PMEL,,http://www.pmel.noaa.gov/tao/proj_over/mooring.shtml,ftp://data.ndbc.noaa.gov/data/oceansites/RAMA/,,McPhaden (PMEL),michael.j.mcphaden@noaa.gov;Bronte.Tilbrook@csiro.au,,RAMA,-,-,-
R05S95E,R05S95E,RAMA,TROPICAL INDIAN, -, -,200608,andouk@jamstec.go.jp,200901,RAMA JAMSTEC  Java Upwelling,-5.000,95.000,surface,Indian,OPERATING,Real Time Data; Accessible,1,1,,,,1,1,USA,USA/JAPAN-NOAA/PMEL/JAMSTEC,,http://www.jamstec.go.jp/jamstec/TRITON/index.html,http://www.jamstec.go.jp/jamstec/TRITON/real_time/php/buoysummary.php,,K Ando (JAMSTEC),andouk@jamstec.go.jp;Bronte.Tilbrook@csiro.au,pCO2 in future,RAMA,-,-,-
R08S67E,R08S67E,RAMA,TROPICAL INDIAN,NDBC,14040,200608,michael.j.mcphaden@noaa.gov,200901,RAMA - Thermocline Ridge,-8.000,67.000,surface,Indian,OPERATING,Real Time & Delayed Mode Data; Accessible,1,1,,1,,1,1,USA/IN,USA/ASCLME-PMEL,,http://www.pmel.noaa.gov/tao/proj_over/mooring.shtml,ftp://data.ndbc.noaa.gov/data/oceansites/RAMA/,,McPhaden (PMEL),michael.j.mcphaden@noaa.gov;Bronte.Tilbrook@csiro.au,,RAMA,PMEL,paul.Freitag@noaa.gov,PMEL
AUST14S110E,AUST14S110E,RAMA,TROPICAL INDIAN, -,NY, - ,k.jarrott@bom.gov.au, -,RAMA - Australian Extension,-13.961,110.004,surface,Indian,PLANNED,Real Time & Delayed Mode Data; Accessible soon,1,1,,1,,1,,USA,USA-NOAA/PMEL,,http://www.pmel.noaa.gov/tao/proj_over/mooring.shtml,ftp://data.ndbc.noaa.gov/data/oceansites/RAMA/,,Ken Jarrot (BOM AUST),k.jarrott@bom.gov.au,,RAMA,-,-,-
CALCOFI-080-055,CALCOFI-080-055,CalCOFI,SOUTHERN CALIF CURRENT,(NDBC),NY,201001,tkoslow@ucsd.edu, - ,California COFI 080/055,34.31666667,-120.8016667,surface,Pacific,OPERATING,Delayed Mode Data; Accessible,1,,,1,,,,USA,USA-SIO,,http://www.calcofi.org/, - ,,Koslow,tkoslow@ucsd.edu;mlankhorst@ucsd.edu;kbaker@ucsd.edu,,CCE,NDBC (PLANNED),kbaker@ucsd.edu,SIO
CALCOFI-080-080,CALCOFI-080-080,CalCOFI,SOUTHERN CALIF CURRENT,(NDBC),NY,201001,tkoslow@ucsd.edu, - ,California COFI 080/080,33.48333333,-122.5333333,surface,Pacific,OPERATING,Delayed Mode Data; Accessible,1,,,1,,,,USA,USA-SIO,,http://www.calcofi.org/, - ,,Koslow,tkoslow@ucsd.edu;mlankhorst@ucsd.edu;kbaker@ucsd.edu,,CCE,NDBC (PLANNED),kbaker@ucsd.edu,SIO
CALCOFI-090-090,CALCOFI-090-090,CalCOFI,SOUTHERN CALIF CURRENT,(NDBC),NY,201001,tkoslow@ucsd.edu, - ,California COFI 090/090,31.41833333,-121.9833333,surface,Pacific,OPERATING,Delayed Mode Data; Accessible,1,,,1,,,,USA,USA-SIO,,http://www.calcofi.org/, - ,,Koslow,tkoslow@ucsd.edu;mlankhorst@ucsd.edu;kbaker@ucsd.edu,,CCE,NDBC (PLANNED),kbaker@ucsd.edu,SIO
CCE-1,CCE-1,CCE,SOUTHERN CALIF CURRENT,(NDBC),NY,Pending,usend@ucsd.edu, - ,California Current Ecosystem CCE-1,33.5,-122.5,observatory,Pacific,OPERATING,Real Time & Delayed Mode Data; Accessible soon,1,1,,1,1,,,USA,USA-SIO/NOAA/PMEL,,http://mooring.ucsd.edu/index.html?/projects/cce/cce_intro.html, - ,,"U.Send, M.Ohman, C.Sabine, D. Demer, A. Dickson",usend@ucsd.edu;mlankhorst@ucsd.edu;Chris.Sabine@noaa.gov;,Depth: 3780m,CCE,NDBC,mlankhorst@ucsd.edu,SIO
CORC-1,CORC-1,CORC,SOUTHERN CALIF CURRENT, -,NY,Pending,usend@ucsd.edu, - ,"Consortium on the Ocean's Role in Climate - Southern California Current
 CORC",32.2,-120.2,,Pacific,PLANNED,Real Time & Delayed Mode Data; Accessible soon,1,1,,1,1,,,USA,USA-SIO/NOAA/PMEL,,http://mooring.ucsd.edu/index.html?/projects/cce/cce_intro.html, - ,,"U.Send, M.Ohman, C.Sabine, D. Demer, A. Dickson",usend@ucsd.edu;mlankhorst@ucsd.edu;Chris.Sabine@noaa.gov;,,CCE,-,-,-
CORC-2,CORC-2,CORC,SOUTHERN CALIF CURRENT, -,NY,Pending,usend@ucsd.edu, - ,Consortium on the Ocean's Role in Climate - Southern California Current CORC,32.2,-120.2,,Pacific,PLANNED,Real Time & Delayed Mode Data; Accessible soon,1,1,,1,1,,,USA,USA-SIO/NOAA/PMEL,,http://mooring.ucsd.edu/index.html?/projects/cce/cce_intro.html, - ,,"U.Send, M.Ohman, C.Sabine, D. Demer, A. Dickson",usend@ucsd.edu;mlankhorst@ucsd.edu;Chris.Sabine@noaa.gov;,,CCE,-,-,-
HOT,ALOHA,,HAWAII,(NDBC),NY,200609,mjchurch@hawaii.edu,200901,HOT -Station ALOHA,22.750,-158.000,observatory,Pacific,OPERATING,Delayed Mode Data; Accessible,1,1,,1,1,1,1,USA,USA-UHSOEST,,http://www.soest.hawaii.edu/HOT_WOCE,http://www.soest.hawaii.edu/HOT_WOCE/ftp.html,,Church; Lukas (UHSOEST);Karl (UHSOEST);Santiago-Manujano,mjchurch@hawaii.edu;rlukas@hawaii.edu;karl@hawaii.edu;dataman@soest.hawaii.edu,,HAWAII,-,-,-
HOT,HALE-ALOHA,,HAWAII,(NDBC), -,200501,mjchurch@hawaii.edu,200902,HOT HALE-ALOHA Mooring,22.750,-158.100,surface,Pacific,DISCONTINUED,UNKNOWN,1,1,,1,1,,,USA,USA-UHSOEST,,http://www.opl.ucsb.edu,http://www.opl.ucsb.edu/mosean/realtime_hi.html,,Church; Dickey;D Karl;C Sabine(CO2),mjchurch@hawaii.edu;tommy.dickey@opl.ucsb.edu;dkarl@hawaii.edu;Chris.Sabine@noaa.gov,"Previously called MOSEAN. Includes optical, ecological",HAWAII,-,-,-
WHOTS,WHOTS,,HAWAII,NDBC,51400,200608,aplueddemann@whoi.edu,200901,WHOI-Hawaii Ocean Timeseries Station,22.750,-157.900,surface,Pacific,OPERATING,Real Time & Delayed Mode Data; Accessible,1,1,,,,1,1,USA,USA-WHOI,,http://uop.whoi.edu/projects/WHOTS/whots.htm,http://uop.whoi.edu/projects/WHOTS/whotsdata.htm,http://www.marinemetadata.org,Weller (WHOI);Plueddemann (WHOI);Lukas (UHSOEST),rlukas@hawaii.edu;aplueddemann@whoi.edu;rweller@whoi.edu;ngalbraith@whoi.edu,,HAWAII,WHOI,ngalbraith@whoi.edu,WHOI
JKEO38N147E,JKEO38N147E,,KUROSHIO,(NDBC),21210,200901,ichikawah@jamstec.go.jp,200907,JAMSTEC Kuroshio Extension Observatory (JKEO),38.000,146.500,observatory,Pacific,OPERATING,Real Time & Delayed Mode Data; Accessible,1,1,,1,1,1,,JAPAN,JAMSTEC,,http://www.jamstec.go.jp/iorgc/ocorp/ktsfg/data/jkeo/,ftp://ftp2.jamstec.go.jp/JKEO/,,Hiroshi Ichikawa ; Shuichi Watanabe (CO2),ichikawah@jamstec.go.jp;swata@jamstec.go.jp;,Only ASCII format files are vailable in DATAURL.,KUROSHIO,JAMSTEC (PLANNED),ichikawah@jamstec.go.jp,JAMSTEC
KEO32N145E,KEO32N145E,,KUROSHIO,IFREMER,28401,200608,Meghan.F.Cronin@noaa.gov,200902,Kuroshio Extension Observatory (KEO),32.400,144.600,observatory,Pacific,OPERATING,Real Time & Delayed Mode Data; Accessible,1,1,,1,1,1,1,USA,USA-NOAA/PMEL,,http://www.pmel.noaa.gov/keo ,http://www.pmel.noaa.gov/keo/data.html,http://www.pmel.noaa.gov/keo/data.html,Cronin;Meinig;Sabine,Meghan.F.Cronin@noaa.gov;christian.meinig@noaa.gov;Chris.Sabine@noaa.gov,,KUROSHIO,PMEL,paul.Freitag@noaa.gov,PMEL
MBARI,MBARI-M0,,,NDBC,46091,200504,chfr@mbari.org,200908,MBARI California Current Biogeochemical Moorings M0,36.830,-121.900,surface,Pacific,OPERATING,Real Time & Delayed Mode Data; Accessible,1,1,,1,,1,,USA,USA-MBARI,,http://www.mbari.org/moos/experiments.htm,http://dods.mbari.org/data/ssdsdata/deployments/previous.html,,Chavez (MBARI),chfr@mbari.org;mccann@mbari.org,Monterey California Current. Previous deployments had been called OASIS: Ocean Acquisition System for Interdisciplinary Science,MBARI,MBARI,mccann@mbari.org,MBARI
MBARI,MBARI-M1,,,NDBC,46092,200504,chfr@mbari.org,200908,MBARI California Current Biogeochemical Moorings M1,36.750,-122.030,surface,Pacific,OPERATING,Real Time & Delayed Mode Data; Accessible,1,1,,1,,1,,USA,USA-MBARI,,http://www.mbari.org/moos/experiments.htm,http://dods.mbari.org/data/ssdsdata/deployments/previous.html,,Chavez (MBARI),chfr@mbari.org;mccann@mbari.org,Previous deployments had been called CIMT,MBARI,MBARI,mccann@mbari.org,MBARI
MBARI,MBARI-M2,,,NDBC,46093, - ,chfr@mbari.org, - ,MBARI California Current Biogeochemical Moorings M2,36.700,-122.390,surface,Pacific,OPERATING,Real Time & Delayed Mode Data; Accessible,1,1,,1,,1,,USA,USA-MBARI,,http://www.mbari.org/moos/experiments.htm,http://dods.mbari.org/data/ssdsdata/deployments/previous.html,,Chavez (MBARI),chfr@mbari.org;mccann@mbari.org,,MBARI,MBARI,mccann@mbari.org,MBARI
 - , - ,,, -, -,200503,hondam@jamstec.go.jp, - ,Northwest Pacific (HiLaTS),51.000,165.000,observatory,Pacific,DISCONTINUED,UNKNOWN,1,,,1,,,,JAPAN,JAPAN-JAMSTEC,,, - ,,Honda,hondam@jamstec.go.jp,,NWPACIFIC,-,-,-
JAMSTEC-K2,JAMSTEC-K2,,, -, -, -,tsaino@jamstec.go.jp; hondam@jamstec.go.jp, - ,Northwest Pacific K2,47.000,160.000,observatory,Pacific,OPERATING,Real Time & Delayed Mode Data; Accessible,,,,1,,1,,JAPAN,JAPAN-JAMSTEC,,, - ,,Saino,tsaino@jamstec.go.jp; hondam@jamstec.go.jp,Two subsurface moorings at station K2: one for Sediment trap and one for optical sensors such as FRRF,NWPACIFIC,-,-,-
NCOR-S1,NCOR-S1,,, -, - , - ,tsaino@jamstec.go.jp; hondam@jamstec.go.jp, - ,Northwest Pacific S1,30.000,145.000,observatory,Pacific,PLANNED,Real Time & Delayed Mode Data; Accessible soon,,,,1,,1,,JAPAN,JAPAN-JAMSTEC,,, - ,,Saino,tsaino@jamstec.go.jp; hondam@jamstec.go.jp,Two subsurface moorings at station S1: one for Sediment trap and one for optical sensors such as FRRF,NWPACIFIC,-,-,-
SEATS1,SEATS1,SEATS,, -, -,200503,cmtseng@ncor.ntu.edu.tw, -,South China Sea SEATS,18.000,115.500,surface,Pacific,DISCONTINUED,Delayed Mode Data; Not Accessible,1,1,,,,,,TAIWAN,TAIWAN-NCOR,,http://www.ncor.ntu.edu.tw, - ,,Yang;Tseng   ,cmtseng@ncor.ntu.edu.tw;'wcjou@mail.nsysu.edu.tw';'yy@ncor.ntu.edu.tw',,SEATS,-,-,-
LINE-P,LINE-P,,STATION-P,(NDBC),NY,200608,Marie.Robert@dfo-mpo.gc.ca,200902,Ocean Station Papa Line P,50.000,-145.000,subsurface,Pacific,OPERATING,Real Time & Delayed Mode Data; Accessible,1,,,1,1,,,CANADA,CANADA,,http://www-sci.pac.dfo-mpo.gc.ca/osap/projects/linepdata/default_e.htm,http://www-sci.pac.dfo-mpo.gc.ca/osap/data/linep/linepselectdata_e.htm,,Freeland;Whitney (BCG);L Miller (BGC);D Mackas (Biol),FreelandHj@dfo-mpo.gc.ca;WhitneyF@dfo-mpo.gc.ca;Marie.Robert@dfo-mpo.gc.ca;Sophia.Johannessen@dfo-mpo.gc.ca;Lisa.Miller@dfo-mpo.gc.ca,"biol.(total inorganic carbon, alkalinity, and pH), O2, nutrients,  zoo/phytoplankton.",STATION-P,CCHDO (PLANNED),sdiggs@ucsd.edu ,DFO-MPO Canada
PAPA,PAPA,,STATION-P,(NDBC),NY,200608,howard.freeland@dfo-mpo.gc.ca,200902,Ocean Station Papa Station P,50.000,-145.000,subsurface,Pacific,PLANNED,Real Time & Delayed Mode Data; Accessible,1,,,1,1,,,CANADA,CANADA,,http://www-sci.pac.dfo-mpo.gc.ca/osap/projects/linepdata/default_e.htm,http://www.meds-sdmm.dfo-mpo.gc.ca/meds/Home_e.htm,,Freeland;Whitney (BCG);L Miller (BGC);D Mackas (Biol),FreelandHj@dfo-mpo.gc.ca;WhitneyF@dfo-mpo.gc.ca;Marie.Robert@dfo-mpo.gc.ca;Sophia.Johannessen@dfo-mpo.gc.ca;Lisa.Miller@dfo-mpo.gc.ca,"biol. (total inorganic carbon, alkalinity, and pH), O2, nutrients,  zoo/phytoplankton. An air-sea gas exchange & sediment trap discontinued",STATION-P,-,-,-
PAPA,PAPA,,STATION-P,(NDBC),48400,200902,Meghan.F.Cronin@noaa.gov,200902,PAPA NOAA PMEL Ocean Climate Stations,50.000,-145.000,observatory,Pacific,OPERATING,Real Time & Delayed Mode Data; Accessible,1,1,,1,1,1,1,USA,USA-NOAA/PMEL,,http://www.pmel.noaa.gov/stnP/,http://www.pmel.noaa.gov/stnP/data.html,,Cronin;Marie Robert;Sabine,Meghan.F.Cronin@noaa.gov;Marie.Robert@dfo-mpo.gc.ca;Chris.Sabine@noaa.gov;,Ocean Acidification,STATION-P,PMEL,paul.Freitag@noaa.gov,PMEL
OOI-PAPA,OOI-PAPA,OOI,STATION-P, -,NY, - ,usend@ucsd.edu, - ,"Ocean Observatories Initiative, North Pacific, Station Papa",50.000,-145.000,subsurface,Pacific,PLANNED,Real Time & Delayed Mode Data; Accessible soon,1,1,1,1,1,1,1,USA,USA- NSF/WHOI/SIO/OSU,,http://www.whoi.edu/page.do?pid=22317,http://www.pmel.noaa.gov/stnP/data.html,,Weller; Send; Plueddemann,rweller@whoi.edu;aplueddemann@whoi.edu;usend@ucsd.edu,"Depth 4250m, Subsurface Profiler Mooring and Mesoscale Flanking Mooring Pair",OOI,-,-,-
STRATUS,STRATUS,STRATUS,,NDBC,38400,200502,rweller@whoi.edu,200902,Stratus Ocean Reference Station,-20.000,-85.000,surface,Pacific,OPERATING,Real Time & Delayed Mode Data; Accessible,1,1,,,1,1,1,USA,USA-WHOI,,http://uop.whoi.edu/projects/Stratus/,http://uop.whoi.edu/projects/Stratus/stratus/data.htm ,,Weller (WHOI),rweller@whoi.edu;chris.sabine@noaa.gov;ngalbraith@whoi.edu,,STRATUS,WHOI,ngalbraith@whoi.edu,Woods Hole
T0N110W,T0N110W,TAO,TROPICAL PACIFIC,NDBC,32323,200608,michael.j.mcphaden@noaa.gov,200901,TAO  0N 110W,0.000,-110.000,observatory,Pacific,OPERATING,Real Time Data; Accessible,,1,,,1,1,1,USA,USA-NOAA/PMEL,,http://www.pmel.noaa.gov/tao ,http://www.pmel.noaa.gov/tao/data_deliv/deliv.html,,McPhaden (PMEL);Sabine;Freitag,michael.j.mcphaden@noaa.gov;chris.sabine@noaa.gov;Paul.Freitag@noaa.gov,o.,TAO,NDBC,bill.burnett@noaa.gov,NDBC
T0N140W,T0N140W,TAO,TROPICAL PACIFIC,NDBC,51311,200608,michael.j.mcphaden@noaa.gov,200901,TAO 0N 140W,0.000,-140.000,observatory,Pacific,OPERATING,Real Time Data; Accessible,,1,,1,1,1,1,USA,USA-NOAA/PMEL,,http://www.pmel.noaa.gov/tao ,http://www.pmel.noaa.gov/tao/data_deliv/deliv.html,,McPhaden (PMEL);Sabine;Freitag,michael.j.mcphaden@noaa.gov;chris.sabine@noaa.gov;Paul.Freitag@noaa.gov,o.,TAO,NDBC,bill.burnett@noaa.gov,NDBC
TR0N156E,TR0N156E,TAO,TROPICAL PACIFIC,(NDBC),52086,200608,andouk@jamstec.go.jp,200903,TRITON -  reference site in West Pac,0.000,156.000,surface,Pacific,OPERATING,Real Time & Delayed Mode Data; Accessible,1,1,,1,,1,,JAPAN,JAPAN-JAMSTEC,,http://www.jamstec.go.jp/jamstec/TRITON/index.html,http://www.jamstec.go.jp/jamstec/TRITON/real_time/php/buoysummary.php,,Kuroda (JAMSTEC);Ando (JAMSTEC),kuroday@jamstec.go.jp;swata@jamstec.go.jp;andouk@jamstec.go.jp,biogeochem. possible for future,TAO,-,-,-
T0N165E,T0N165E,TAO,TROPICAL PACIFIC,NDBC,52321,200608,michael.j.mcphaden@noaa.gov,200901,TAO mooring 0N 165E,0.000,165.000,observatory,Pacific,OPERATING,Real Time Data; Accessible,,1,,1,1,1,1,USA,USA-NOAA/PMEL,,http://www.pmel.noaa.gov/tao ,http://www.pmel.noaa.gov/tao/data_deliv/deliv.html,,McPhaden (PMEL);Sabine;Freitag,michael.j.mcphaden@noaa.gov;chris.sabine@noaa.gov;Paul.Freitag@noaa.gov,on existing TAO/TRITON mooring,TAO,NDBC,bill.burnett@noaa.gov,NDBC
T0N170W,T0N170W,TAO,TROPICAL PACIFIC,NDBC,51010,200608,michael.j.mcphaden@noaa.gov,200901,TAO mooring 0N 170W,0.000,-170.000,observatory,Pacific,OPERATING,Real Time Data; Accessible,,1,,,1,1,,USA,USA-NOAA/PMEL,,http://www.pmel.noaa.gov/co2/moorings/ ,http://www.pmel.noaa.gov/co2/moorings/ ,,McPhaden (PMEL);Sabine;Freitag,michael.j.mcphaden@noaa.gov;chris.sabine@noaa.gov;Paul.Freitag@noaa.gov,o.,TAO,NDBC,bill.burnett@noaa.gov,NDBC
 - , - , - ,, - , - ,200504,chfr@mbari.org, -  ,TAO (MBARI),0.000,-155.000,surface,Pacific,DISCONTINUED,UNKNOWN,1,1,,1,1,1,,USA,USA-MBARI,,http://www.mbari.org/bog/Projects/EQPAC/default.htm,http://www.mbari.org/oasis/qc/index.html,,Chavez (MBARI),chfr@mbari.org,, - ,-,-,-
 - , - , - ,, - , - ,200504,chfr@mbari.org, - ,TAO (MBARI),-2.000,-170.000,surface,Pacific,DISCONTINUED,UNKNOWN,1,1,,1,1,1,,USA,USA-MBARI,,http://www.mbari.org/bog/Projects/EQPAC/default.htm,http://www.mbari.org/oasis/qc/index.html,,Chavez (MBARI),chfr@mbari.org,, - ,-,-,-
 - , - , - ,, - , - , - ,orpa@profc.udec.cl, -,Deep water off Chile,-30.000,-73.000,subsurface,Pacific,DISCONTINUED,UNKNOWN,1,,,,,,,CHILE,CHILE,,, - ,,Pizzaro,orpa@profc.udec.cl,, - ,-,-,-
OOI-SOUTHERN,OOI-SOUTHERN,OOI,, -,NY, - ,usend@ucsd.edu, - ,"Ocean Observatories Initiative, Southern Ocean SW of Chile",-55.000,-90.000,observatory,Southern,PLANNED,Real Time & Delayed Mode Data; Accessible soon,1,1,1,1,1,1,1,USA,USA- NSF/WHOI/SIO/OSU,,http://www.whoi.edu/page.do?pid=22317, - ,,Weller; Send; Plueddemann,rweller@whoi.edu;aplueddemann@whoi.edu;usend@ucsd.edu,"Depth 4800m, Acoustically Linked Surface Mooring with Subsurface Profiler Mooring and Mesoscale Flanking Mooring Pair",OOI,-,-,-
SOTS,PULSE,IMOS,, -,NY,200503,tom.trull@utas.edu.au, - ,IMOS/SOTS south of Tasmania - Pulse,-47.000,140.000,observatory,Southern,OPERATING,Real Time & Delayed Mode Data; Accessible,1,,,1,,,,AUSTRALIA,AUSTRALIA-CSIRO/BOM,,http://imos.org.au/sots.html,http://imos.org.au/sots.html,,Trull; Eric Schulz,tom.trull@utas.edu.au;E.Schulz@bom.gov.au,"sediment trap, Profiling Float, glider",IMOS,IMOS (PLANNED),e.schulz@bom.gov.au,IMOS/CSIRO/BOM
SOTS,PULSE-HEAVY,IMOS,, -, - ,200503,tom.trull@utas.edu.au, - ,IMOS/SOTS south of Tasmania - Pulse,-47.000,140.000,observatory,Southern,PLANNED,Real Time & Delayed Mode Data; Accessible,1,,,1,1,,,AUSTRALIA,AUSTRALIA-CSIRO/BOM,,http://imos.org.au/sots.html,http://imos.org.au/sots.html,,Trull; Eric Schulz,tom.trull@utas.edu.au;E.Schulz@bom.gov.au,"sediment trap, Profiling Float, glider",IMOS,IMOS (PLANNED),e.schulz@bom.gov.au,IMOS/CSIRO/BOM
SOTS,SOFSMET,IMOS,, -, - ,200503,e.schulz@bom.gov.au, - ,IMOS/SOTS south  of Tasmania - Met Buoy (SOFS),-47.000,140.000,surface,Southern,PLANNED,Real Time & Delayed Mode Data; Accessible,1,1,,,,1,1,AUSTRALIA,AUSTRALIA-CSIRO/BOM,,http://imos.org.au/sots.html,http://imos.org.au/sots.html,,Trull; Eric Schulz,tom.trull@utas.edu.au;E.Schulz@bom.gov.au,,IMOS,IMOS (PLANNED),e.schulz@bom.gov.au,IMOS/CSIRO/BOM
NZOTS-SAM,NZOTS-SAM,,, -, - ,200609,s.nodder@niwa.co.nz,200901,New Zealand Ocean Time Series SAM,-46.600,178.500,subsurface,Southern,OPERATING,Delayed Mode Data; Not Accessible,1,,,1,1,1,,NZ,NZ-NIWA,,http://www.agu.org/pubs/crossref/2005/2004JC002833.shtml, - ,,Boyd;S Nodder;Kim Currie,p.boyd@niwa.co.nz;s.nodder@niwa.co.nz;Kimc@chemistry.otago.ac.nz,"particle flux, SAMI pCO2 sensor, chlorophyll;bio-optical instruments",NEWZEALAND,-,-,-
NZOTS-STM,NZOTS-STM,,, -, - ,200609,s.nodder@niwa.co.nz,200901,New Zealand Ocean Time Series STM,-41.200,178.500,subsurface,Southern,OPERATING,Delayed Mode Data; Not Accessible,1,,,1,,1,,NZ,NZ-NIWA,,http://www.agu.org/pubs/crossref/2005/2004JC002833.shtml, - ,,Boyd;S Nodder;Kim Currie,p.boyd@niwa.co.nz;s.nodder@niwa.co.nz;Kimc@chemistry.otago.ac.nz,"particle flux, SAMI pCO2 sensor, chlorophyll;bio-optical instruments",NEWZEALAND,-,-,-
RATS,RATS,,, -, -,200608,mmm@bas.ac.uk,200812,Rothera Time Series (RaTS),-67.000,-68.000,observatory,Southern,OPERATING,Delayed Mode Data; Not Accessible,1,,,1,,,,UK,UK-BAS,,www.antarctica.ac.uk/rats,www.antarctica.ac.uk/rats,,Meredith; Andrew Clarke,mmm@bas.ac.uk,& biological; weekly CTD,ROTHERA,-,-,-
GREENWICHTRANS,AWI227-10,,WEDDEL, -, - ,200504,efahrbach@awi-bremerhaven.de,200903,Weddel Greenwich AWI227-10,-59.068,-0.081,transport,Southern,OPERATING,Delayed Mode Data; Accessible,1,,,,,,,GERMANY,GERMANY-AWI,,, - ,,Fahrbach (AWI),efahrbach@awi-bremerhaven.de,,WEDDEL,-,-,-
GREENWICHTRANS,AWI229-8,,WEDDEL, -, - ,200504,efahrbach@awi-bremerhaven.de,200903,Weddel Greenwich AWI229-8,-63.967,-0.052,transport,Southern,OPERATING,Delayed Mode Data; Accessible,1,,,,,,,GERMANY,GERMANY-AWI,,, - ,,Fahrbach (AWI),efahrbach@awi-bremerhaven.de,,WEDDEL,-,-,-
GREENWICHTRANS,AWI230-6,,WEDDEL, -, - ,200504,efahrbach@awi-bremerhaven.de,200903,Weddel Greenwich AWI230-6,-66.019,-0.080,transport,Southern,OPERATING,Delayed Mode Data; Accessible,1,,,,,,,GERMANY,GERMANY-AWI,,, - ,,Fahrbach (AWI),efahrbach@awi-bremerhaven.de,,WEDDEL,-,-,-
GREENWICHTRANS,AWI231-8,,WEDDEL, -, - ,200504,efahrbach@awi-bremerhaven.de,200903,Weddel Greenwich AWI231-8,-66.511,-0.030,transport,Southern,OPERATING,Delayed Mode Data; Accessible,1,,,,,,,GERMANY,GERMANY-AWI,,, - ,,Fahrbach (AWI),efahrbach@awi-bremerhaven.de,,WEDDEL,-,-,-
GREENWICHTRANS,AWI232-9,,WEDDEL, -, - ,200504,efahrbach@awi-bremerhaven.de,200903,Weddel Greenwich AWI232-9,-68.996,-0.003,transport,Southern,OPERATING,Delayed Mode Data; Accessible,1,,,,,,,GERMANY,GERMANY-AWI,,, - ,,Fahrbach (AWI),efahrbach@awi-bremerhaven.de,,WEDDEL,-,-,-
WEDDEL-NW,NW1,WEDDEL,WEDDEL, -, - ,200504,agordon@ldeo.columbia.edu,200901,Weddell Sea (northwestern):1,-62.000,-44.000,transport,Southern,DISCONTINUED,Delayed Mode Data; Accessible,1,,,,,,,USA,USA-LDEO,,http://www.ldeo.columbia.edu/res/div/ocp/projects/corc.shtml ,http://www.ldeo.columbia.edu/res/div/ocp/projects/corc.shtml ,,Gordon;Huber,agordon@ldeo.columbia.edu;bhuber@ldeo.columbia.edu,bottom water,WEDDEL,-,-,-
WEDDEL-NW,NW2,WEDDEL,WEDDEL, -, - ,200504,agordon@ldeo.columbia.edu,200901,Weddell Sea (northwestern):2,-62.625,-43.250,transport,Southern,OPERATING,Delayed Mode Data; Accessible,1,,,,,,,USA,USA-LDEO,,http://www.ldeo.columbia.edu/res/div/ocp/projects/corc.shtml ,http://www.ldeo.columbia.edu/res/div/ocp/projects/corc.shtml ,,Gordon;Huber,agordon@ldeo.columbia.edu;bhuber@ldeo.columbia.edu,bottom water,WEDDEL,-,-,-
WEDDEL-NW,NW3,WEDDEL,WEDDEL, -, - ,200504,agordon@ldeo.columbia.edu,200901,Weddell Sea (northwestern):3,-63.500,-41.780,transport,Southern,OPERATING,Delayed Mode Data; Accessible,1,,,,,,,USA,USA-LDEO,,http://www.ldeo.columbia.edu/res/div/ocp/projects/corc.shtml ,http://www.ldeo.columbia.edu/res/div/ocp/projects/corc.shtml ,,Gordon;Huber,agordon@ldeo.columbia.edu;bhuber@ldeo.columbia.edu,bottom water,WEDDEL,-,-,-
WEDDELAWI206-6,AWI206-6,WEDDEL,WEDDEL, -, - ,200504,efahrbach@awi-bremerhaven.de,200903,Weddell Sea proper AWI206-6,-63.480,-52.096,observatory,Southern,OPERATING,Delayed Mode Data; Accessible,1,,,,,,,GERMANY,GERMANY-AWI,,, - ,,Fahrbach (AWI),efahrbach@awi-bremerhaven.de;Gerd.Rohardt@awi.de,sea ice,WEDDEL,-,-,-
WEDDELAWI207-7,AWI207-7,WEDDEL,WEDDEL, -, - ,200504,efahrbach@awi-bremerhaven.de,200903,Weddell Sea proper AWI207-7,-63.712,-50.843,observatory,Southern,OPERATING,Delayed Mode Data; Accessible,1,,,,,,,GERMANY,GERMANY-AWI,,, - ,,Fahrbach (AWI),efahrbach@awi-bremerhaven.de;Gerd.Rohardt@awi.de,sea ice,WEDDEL,-,-,-
WEDDELAWI208-5,AWI208-5,WEDDEL,WEDDEL, -, - ,200504,efahrbach@awi-bremerhaven.de,200903,Weddell Sea proper AWI208-5,-66.614,-36.407,observatory,Southern,OPERATING,Delayed Mode Data; Accessible,1,,,,,,,GERMANY,GERMANY-AWI,,, - ,,Fahrbach (AWI),efahrbach@awi-bremerhaven.de;Gerd.Rohardt@awi.de,sea ice,WEDDEL,-,-,-
WEDDELAWI209-5,AWI209-5,WEDDEL,WEDDEL, -, - , - ,efahrbach@awi-bremerhaven.de,200903,Weddell Sea proper AWI209-5,-66.615,-27.118,observatory,Southern,OPERATING,Delayed Mode Data; Accessible,1,,,,,,,GERMANY,GERMANY-AWI,,, - ,,Fahrbach (AWI),efahrbach@awi-bremerhaven.de;Gerd.Rohardt@awi.de,sea ice,WEDDEL,-,-,-
WEDDELAWI216-3,AWI216-3,WEDDEL,WEDDEL, -, - , - ,efahrbach@awi-bremerhaven.de,200903,Weddell Sea proper AWI216-3,-63.901,-49.078,observatory,Southern,OPERATING,Delayed Mode Data; Accessible,1,,,,,,,GERMANY,GERMANY-AWI,,, - ,,Fahrbach (AWI),efahrbach@awi-bremerhaven.de;Gerd.Rohardt@awi.de,sea ice,WEDDEL,-,-,-
WEDDELAWI217-3,AWI217-3,WEDDEL,WEDDEL, -, - , - ,efahrbach@awi-bremerhaven.de,200903,Weddell Sea proper AWI217-3,-64.394,-45.873,observatory,Southern,OPERATING,Delayed Mode Data; Accessible,1,,,,,,,GERMANY,GERMANY-AWI,,, - ,,Fahrbach (AWI),efahrbach@awi-bremerhaven.de;Gerd.Rohardt@awi.de,sea ice,WEDDEL,-,-,-
WEDDELAWI244-1,AWI244-1,WEDDEL,WEDDEL, -, - , - ,efahrbach@awi-bremerhaven.de,200903,Weddell Sea proper AWI244-1,-68.995,-6.945,observatory,Southern,OPERATING,Delayed Mode Data; Accessible,1,,,,,,,GERMANY,GERMANY-AWI,,, - ,,Fahrbach (AWI),efahrbach@awi-bremerhaven.de;Gerd.Rohardt@awi.de,sea ice,WEDDEL,-,-,-
WEDDELAWI245-1,AWI245-1,WEDDEL,WEDDEL, -, - , - ,efahrbach@awi-bremerhaven.de,200903,Weddell Sea proper AWI245-1,-69.061,-17.432,observatory,Southern,OPERATING,Delayed Mode Data; Accessible,1,,,,,,,GERMANY,GERMANY-AWI,,, - ,,Fahrbach (AWI),efahrbach@awi-bremerhaven.de;Gerd.Rohardt@awi.de,sea ice,WEDDEL,-,-,-
WEDDELWSW-S2,WSW-S2,WEDDEL,WEDDEL,(IFREMER),NY, - ,svein.Osterhus@gfi.uib.no, - ,Weddell Sea (southwestern),-73.500,-35.000,subsurface,Southern,DISCONTINUED,UNKNOWN,1,,,,,,,NORWAY,NORWAY,,, - ,,Osterhus (Norway),svein.Osterhus@gfi.uib.no,ISW overflow,WEDDEL,NORWAY (PLANNED),svein.Osterhus@gfi.uib.no,BERGEN
AGULHASRETURN,AGULHASRETURN, - ,,(NDBC), - ,201006,meghan.f.cronin@noaa.gov, - ,Agulhas Return Current,-38.5,30.00,observatory,Southern,PLANNED,Real Time & Delayed Mode Data; Accessible soon,1,1,1,,1,,,USA,USA - NOAA/PMEL,,http://www.pmel.noaa.gov/people/cronin/ARC/ARC.html,http://www.pmel.noaa.gov/ocs/data_del.html,0,Cronin,kspeer@ocean.fsu.edu; meghan.f.cronin@noaa.gov,, - ,PMEL (PLANNED),paul.Freitag@noaa.gov,-
 - , - ,,, - , - ,200412,yhpark@mnhn.fr, - ,Kerguelen CLIOKER:1,-50.770,68.870,observatory,Southern,DISCONTINUED,UNKNOWN,1,,,,,,,FRANCE,FRANCE,,, - ,,Park,yhpark@mnhn.fr,(monthly CTD), - ,-,-,-
 - , - ,,, - , - ,200412,yhpark@mnhn.fr, - ,Kerguelen CLIOKER:2,-49.470,71.370,observatory,Southern,DISCONTINUED,UNKNOWN,1,,,,,,,FRANCE,FRANCE,,, - ,,Park,yhpark@mnhn.fr,(monthly CTD), - ,-,-,-
 - , - ,,, - , - ,200503,aorsi@tamu.edu, -,Ross Sea Ocean Time Series,-71.500,172.500,subsurface,Southern,DISCONTINUED,UNKNOWN,1,,,,,,,USA,USA,,, - ,,Gordon;Huber,agordon@ldeo.columbia.edu;bhuber@ldeo.columbia.edu,"bottom water overflow, 6-12 moorings", - ,-,-,-
 - , - ,,DRAKE PASSAGE, - , - ,200501,cwh@pol.ac.uk, - ,Drake Passage:1,-54.940,-58.390,transport,Southern,DISCONTINUED,UNKNOWN,1,,,,,,,UK,UK-POL,,http://www.pol.ac.uk/home/research/p1t3comm.html,http://www.pol.ac.uk/psmslh/gloup/gloup.html,,Hughes; Provost,cwh@pol.ac.uk;cp@lodyc.jussieu.fr,"BPR,IES (POL)", - ,-,-,-
 - , - ,,DRAKE PASSAGE, - , - ,200501,cwh@pol.ac.uk, - ,Drake Passage:2,-60.850,-54.710,transport,Southern,DISCONTINUED,UNKNOWN,,,,,,,,UK,UK-POL,,http://www.pol.ac.uk/home/research/p1t3comm.html,http://www.pol.ac.uk/psmslh/gloup/gloup.html,,Hughes; Provost,cwh@pol.ac.uk;cp@lodyc.jussieu.fr,"BPR,IES (POL)", - ,-,-,-
,,,,,,,,,,,,,,,,,,,,,,,,,,,,,,,,,,,
,,,,,,,,,,,,,,,,,,,,,,,,,,,,,,,,,,,
,,,,,,,,,,,,,,,,,,,,,,,,,,,,,,,,,,,
,,,,,,,,,,,,,,,,,,,,,,,,,,,,,,,,,,,
,,,,,,,,,,,,,,,,,,,,,,,,,,,,,,,,,,,
